category,name,lat,lon
primary_school,The Aldgate School,51.513969,-0.077531
primary_school,Argyle Primary School,51.528748,-0.123908
primary_school,West Hampstead Primary School,51.550679,-0.200173
primary_school,Brecknock Primary School,51.547461,-0.12784
primary_school,Brookfield Primary School,51.563545,-0.144579
primary_school,Edith Neville Primary School,51.532766,-0.131139
primary_school,Fleet Primary School,51.553264,-0.159841
primary_school,Hawley Primary School,51.542646,-0.142834
primary_school,Netley Primary School,51.527545,-0.140435
primary_school,New End Primary School,51.557954,-0.176876
primary_school,Primrose Hill School,51.539507,-0.151354
primary_school,Rhyl Community Primary School,51.547714,-0.150589
primary_school,Richard Cobden Primary School,51.535478,-0.13655
primary_school,Torriano Primary School,51.549672,-0.132841
primary_school,Gospel Oak Primary School,51.555062,-0.151791
primary_school,Fitzjohn's Primary School,51.553397,-0.175861
primary_school,Eleanor Palmer Primary School,51.554635,-0.139013
primary_school,"Christ Church Primary School, Hampstead",51.559555,-0.176307
primary_school,Christ Church School,51.53114,-0.144239
primary_school,Emmanuel Church of England Primary School,51.552351,-0.193645
primary_school,Hampstead Parochial Church of England Primary School,51.55635,-0.179566
primary_school,"Holy Trinity CofE Primary School, NW3",51.546145,-0.177896
primary_school,"Holy Trinity and Saint Silas CofE Primary School, NW1",51.544123,-0.145817
primary_school,Kentish Town Church of England Primary School,51.54972,-0.139271
primary_school,Rosary Catholic Primary School,51.552087,-0.166783
primary_school,St Alban's Church of England Primary School,51.520205,-0.111026
primary_school,St George the Martyr Church of England Primary School,51.522372,-0.116602
primary_school,St Josephs Catholic Primary School,51.516189,-0.121873
primary_school,St Mary's Kilburn Church of England Primary School,51.540368,-0.193355
primary_school,St Mary and St Pancras Church of England Primary School,51.532379,-0.134471
primary_school,St Patrick's Catholic Primary School,51.549275,-0.142924
primary_school,St Paul's Church of England Primary School,51.541667,-0.16289
primary_school,St Eugene de Mazenod Roman Catholic Primary School,51.540968,-0.19375
primary_school,Our Lady Roman Catholic Primary School,51.538865,-0.137479
primary_school,Morden Mount Primary School,51.470078,-0.014511
primary_school,Cherry Orchard Primary School,51.476311,0.032116
primary_school,Ealdham Primary School,51.457367,0.035521
primary_school,Fossdene Primary School,51.484412,0.026988
primary_school,Gordon Primary School,51.458556,0.054503
primary_school,Haimo Primary School,51.45539,0.041637
primary_school,Henwick Primary School,51.462365,0.042855
primary_school,Invicta Primary School,51.478975,0.020569
primary_school,Meridian Primary School,51.483796,-0.001557
primary_school,Plumcroft Primary School,51.477972,0.074371
primary_school,Sherington Primary School,51.480091,0.025688
primary_school,Thorntree Primary School,51.486735,0.041841
primary_school,Wyborne Primary School,51.44009,0.069503
primary_school,Montbelle Primary School,51.427805,0.062445
primary_school,De Lucy Primary School,51.495964,0.111277
primary_school,Cardwell Primary School,51.490426,0.052954
primary_school,Heronsgate Primary School,51.494055,0.082751
primary_school,Linton Mead Primary School,51.507939,0.113013
primary_school,Greenslade Primary School,51.479674,0.086402
primary_school,Mulgrave Primary School,51.48864,0.060955
primary_school,Charlton Manor Primary School,51.477433,0.036875
primary_school,Christ Church Church of England Primary School,51.488139,0.006368
primary_school,"Christ Church Church of England Primary School, Shooters Hill",51.469901,0.06083
primary_school,Eltham Church of England Primary School,51.451651,0.056453
primary_school,Our Lady of Grace Catholic Primary School,51.480774,0.027288
primary_school,St Joseph's Catholic Primary School,51.486395,0.005298
primary_school,St Margaret's Church of England Primary School,51.483413,0.076389
primary_school,Saint Mary Magdalene Church of England All Through School,51.491244,0.061187
primary_school,St Patrick's Catholic Primary School,51.487847,0.085464
primary_school,St Alfege with St Peter's Church of England Primary School,51.481684,-0.012221
primary_school,St Peter's Catholic Primary School,51.48711,0.068693
primary_school,St Thomas More Catholic Primary School,51.461754,0.044915
primary_school,St Thomas A Becket Roman Catholic Primary School,51.491733,0.104023
primary_school,St Margaret Clitherow Catholic Primary School,51.501138,0.113116
primary_school,Bishop John Robinson Church of England Primary School,51.508391,0.118856
primary_school,Berger Primary School,51.546035,-0.044839
primary_school,Daubeney Primary School,51.552719,-0.037989
primary_school,Gainsborough Primary School,51.545782,-0.025971
primary_school,Lauriston School,51.536626,-0.045747
primary_school,London Fields Primary School,51.537304,-0.060051
primary_school,Millfields Community School,51.555876,-0.050952
primary_school,Morningside Primary School,51.546504,-0.050285
primary_school,Orchard Primary School,51.540845,-0.049056
primary_school,Queensbridge Primary School,51.539287,-0.071748
primary_school,Princess May Primary School,51.552773,-0.077597
primary_school,Sebright School,51.533958,-0.065947
primary_school,Shacklewell Primary School,51.553233,-0.07276
primary_school,Southwold Primary School,51.563438,-0.05363
primary_school,Thomas Fairchild Community School,51.53313,-0.0912
primary_school,Shoreditch Park Primary School,51.535022,-0.085857
primary_school,Woodberry Down Community Primary School,51.57362,-0.090961
primary_school,Kingsmead Primary School,51.553592,-0.035298
primary_school,Grasmere Primary School,51.55501,-0.083561
primary_school,Jubilee Primary School,51.56607,-0.065941
primary_school,Nightingale Primary School,51.55589,-0.059953
primary_school,Harrington Hill Primary School,51.567258,-0.054073
primary_school,Holmleigh Primary School,51.570356,-0.081055
primary_school,Grazebrook Primary School,51.564194,-0.083132
primary_school,Parkwood Primary School,51.565068,-0.099313
primary_school,Benthal Primary School,51.558297,-0.065188
primary_school,Mandeville Primary School,51.55709,-0.03959
primary_school,Holy Trinity Church of England Primary School,51.544387,-0.072961
primary_school,Our Lady and St Joseph Catholic Primary School,51.544942,-0.080437
primary_school,St John the Baptist Voluntary Aided Church of England Primary School,51.530909,-0.08404
primary_school,St Matthias Church of England Primary School,51.552873,-0.079353
primary_school,St. Paul's With St. Michael's CofE Primary School,51.537493,-0.065494
primary_school,St John of Jerusalem Church of England Primary School,51.540081,-0.050156
primary_school,St Scholastica's Catholic Primary School,51.558765,-0.062514
primary_school,Simon Marks Jewish Primary School,51.565698,-0.068481
primary_school,Addison Primary School,51.499821,-0.219207
primary_school,Avonmore Primary School,51.489594,-0.203141
primary_school,Brackenbury Primary School,51.499901,-0.232834
primary_school,Miles Coverdale Primary School,51.504112,-0.228838
primary_school,Flora Gardens Primary School,51.498618,-0.224642
primary_school,Kenmont Primary School,51.531709,-0.235336
primary_school,Melcombe Primary School,51.486182,-0.221164
primary_school,Old Oak Primary School,51.518015,-0.243836
primary_school,Sir John Lillie Primary School,51.483066,-0.209634
primary_school,Wendell Park Primary School,51.503327,-0.248969
primary_school,Wormholt Park Primary School,51.511671,-0.238748
primary_school,All Saints CofE Primary School,51.472858,-0.213619
primary_school,Holy Cross RC School,51.475907,-0.198985
primary_school,John Betts Primary School,51.496824,-0.235719
primary_school,St John's Walham Green Church of England Primary School,51.477051,-0.209121
primary_school,St Mary's Catholic Primary School,51.4989,-0.215987
primary_school,St Paul's CofE Primary School,51.490635,-0.2272
primary_school,St Peter's Primary School,51.492161,-0.240134
primary_school,St Stephen's CofE Primary School,51.505542,-0.22763
primary_school,Good Shepherd RC Primary School,51.502642,-0.245263
primary_school,Ambler Primary School and Children's Centre,51.562554,-0.101741
primary_school,Drayton Park Primary School,51.551549,-0.105733
primary_school,Duncombe Primary School,51.566917,-0.123664
primary_school,Gillespie Primary School,51.560009,-0.100058
primary_school,Grafton Primary School,51.559102,-0.119124
primary_school,Hanover Primary School,51.532944,-0.09859
primary_school,Hargrave Park Primary School,51.564283,-0.140077
primary_school,Laycock Primary School,51.544533,-0.104553
primary_school,Moreland Primary School,51.528398,-0.099356
primary_school,Pakeman Primary School,51.558804,-0.114015
primary_school,Robert Blair School and Children's Centre,51.544747,-0.12175
primary_school,Thornhill Primary School,51.540843,-0.109927
primary_school,Vittoria Primary School,51.535368,-0.11334
primary_school,Winton Primary School,51.53235,-0.11805
primary_school,Yerbury Primary School,51.561207,-0.130406
primary_school,Tufnell Park Primary School,51.554449,-0.129572
primary_school,Ashmount Primary School,51.573661,-0.124195
primary_school,Prior Weston Primary School and Children's Centre,51.521673,-0.09338
primary_school,Sacred Heart Catholic Primary School,51.550325,-0.113529
primary_school,St John Evangelist Catholic Primary School,51.533968,-0.104055
primary_school,St John's Upper Holloway CofE Primary School,51.562625,-0.133046
primary_school,St John's Highbury Vale CofE Primary School,51.558195,-0.100768
primary_school,St Joseph's Catholic Primary School,51.568607,-0.141689
primary_school,St Luke's CofE Primary School,51.526568,-0.091921
primary_school,St Mark's CofE Primary School,51.564356,-0.120942
primary_school,St Mary's CofE Primary School,51.539617,-0.100287
primary_school,St Peter and St Paul Catholic Primary School,51.524834,-0.100874
primary_school,St Andrew's (Barnsbury) CofE Primary School,51.538185,-0.114622
primary_school,St Joan of Arc RC Primary School,51.556596,-0.096997
primary_school,Christ The King Catholic Primary School,51.566374,-0.115029
primary_school,Ashburnham Community School,51.48137,-0.178909
primary_school,Barlby Primary School,51.523322,-0.216489
primary_school,Bevington Primary School,51.52137,-0.208161
primary_school,Bousfield Primary School,51.490223,-0.186119
primary_school,Colville Primary School,51.514756,-0.20316
primary_school,Fox Primary School,51.507322,-0.196911
primary_school,Marlborough Primary School,51.492725,-0.166054
primary_school,Oxford Gardens Primary School,51.51684,-0.218976
primary_school,Park Walk Primary School,51.484152,-0.177963
primary_school,Avondale Park Primary School,51.510656,-0.213798
primary_school,Thomas Jones Primary School,51.515734,-0.211265
primary_school,Christ Church CofE Primary School,51.485414,-0.164316
primary_school,Holy Trinity CofE Primary School,51.493452,-0.156747
primary_school,Oratory Roman Catholic Primary School,51.490504,-0.17009
primary_school,St Thomas' CofE Primary School,51.523909,-0.20897
primary_school,St Barnabas and St Philip's CofE Primary School,51.497643,-0.198445
primary_school,Saint Francis of Assisi Catholic Primary School,51.512224,-0.21698
primary_school,St Clement and St James CofE Primary School,51.509081,-0.211353
primary_school,St Mary Abbots CofE Primary School,51.502115,-0.192217
primary_school,Saint Mary's Catholic Primary School,51.525088,-0.210797
primary_school,Servite RC Primary School,51.485169,-0.183799
primary_school,St Charles Catholic Primary School,51.521333,-0.215168
primary_school,Ashmole Primary School,51.482014,-0.114938
primary_school,Clapham Manor Primary School,51.464408,-0.137561
primary_school,Granton Primary School,51.414511,-0.14225
primary_school,Heathbrook Primary School,51.470118,-0.143174
primary_school,Henry Cavendish Primary School,51.444744,-0.142808
primary_school,Jessop Primary School,51.459899,-0.101425
primary_school,Kingswood Primary School,51.426969,-0.09042
primary_school,Larkhall Primary Campus,51.470668,-0.129732
primary_school,Paxton Primary School,51.421962,-0.081193
primary_school,Richard Atkins Primary School,51.448089,-0.126957
primary_school,Stockwell Primary School,51.466606,-0.118064
primary_school,Sudbourne Primary School,51.458416,-0.119322
primary_school,Sunnyhill Primary School,51.429094,-0.120109
primary_school,Telferscot Primary School,51.442558,-0.137097
primary_school,Vauxhall Primary School,51.488928,-0.117692
primary_school,Walnut Tree Walk Primary School,51.493939,-0.113337
primary_school,Woodmansterne School,51.412635,-0.135697
primary_school,"Wyvil Primary School and Resource Bases for Speech, Language and Communication Needs, and Autism",51.481293,-0.125481
primary_school,Crown Lane Primary School,51.423614,-0.109258
primary_school,Fenstanton Primary School,51.442255,-0.11364
primary_school,Elm Wood School,51.432012,-0.091979
primary_school,Allen Edwards Primary School,51.472867,-0.127223
primary_school,Glenbrook Primary School,51.453,-0.132153
primary_school,Julian's School,51.431233,-0.105506
primary_school,Herbert Morrison Primary School,51.478655,-0.125892
primary_school,Archbishop Sumner Church of England Primary School,51.491601,-0.109962
primary_school,Christ Church Primary SW9,51.47623,-0.108149
primary_school,Macaulay Church of England Primary School,51.463656,-0.147439
primary_school,St Andrew's Church of England Primary School,51.468347,-0.122355
primary_school,St John the Divine Church of England Primary School,51.478892,-0.103719
primary_school,St John's Angell Town Church of England Primary School,51.468053,-0.108545
primary_school,St Jude's Church of England Primary School,51.454319,-0.105039
primary_school,St Mark's Church of England Primary School,51.48457,-0.11731
primary_school,St Saviour's Church of England Primary School,51.463709,-0.097927
primary_school,St Stephen's Church of England Primary School,51.47974,-0.122319
primary_school,Holy Trinity Church of England Primary School,51.447555,-0.118372
primary_school,St Helen's Catholic Primary School,51.467116,-0.113421
primary_school,St Anne's Catholic Primary School,51.485565,-0.119358
primary_school,St Bede's Catholic Primary School,51.444521,-0.135593
primary_school,St Andrew's Catholic Primary School,51.424321,-0.125814
primary_school,Immanuel and St Andrew Church of England Primary School,51.419349,-0.13154
primary_school,Reay Primary School,51.477503,-0.115124
primary_school,St Mary's Roman Catholic Primary School,51.45912,-0.138064
primary_school,Adamsrill Primary School,51.430845,-0.041374
primary_school,Athelney Primary School,51.434068,-0.023957
primary_school,Baring Primary School,51.444325,0.014348
primary_school,Beecroft Garden Primary,51.457123,-0.036089
primary_school,Cooper's Lane Primary School,51.437157,0.020637
primary_school,Dalmain Primary School,51.443577,-0.043477
primary_school,Deptford Park Primary School,51.488213,-0.037865
primary_school,Downderry Primary School,51.428215,0.000376
primary_school,Edmund Waller Primary School,51.470758,-0.048621
primary_school,Elfrida Primary School,51.428937,-0.023617
primary_school,Forster Park Primary School,51.434203,0.003615
primary_school,Gordonbrock Primary School,51.455647,-0.027991
primary_school,Grinling Gibbons Primary School,51.481517,-0.029467
primary_school,Haseltine Primary School,51.428288,-0.036405
primary_school,Brindishe Green School,51.451311,-0.004545
primary_school,Holbeach Primary School,51.447932,-0.023214
primary_school,John Stainer Community Primary School,51.464205,-0.039614
primary_school,Kelvin Grove Primary School,51.432594,-0.062778
primary_school,Kender Primary School,51.474994,-0.050802
primary_school,Launcelot Primary School and Nursery,51.42658,0.014473
primary_school,Brindishe Manor School,51.452144,0.004099
primary_school,Oak Gardens Primary School,51.47174,-0.028276
primary_school,Marvels Lane Primary School,51.42875,0.033026
primary_school,Rangefield Primary School,51.424409,0.003676
primary_school,Rathfern Primary School,51.441193,-0.032671
primary_school,Rushey Green Primary School,51.442906,-0.019042
primary_school,Sandhurst Primary School,51.442988,-0.000547
primary_school,Stillness Junior School,51.449418,-0.038909
primary_school,Stillness Infant School,51.449418,-0.038909
primary_school,Torridon Primary School,51.436644,-0.002407
primary_school,John Ball Primary School,51.466264,0.005092
primary_school,Fairlawn Primary School,51.447151,-0.05452
primary_school,Eliot Bank Primary School,51.437093,-0.06184
primary_school,Twin Oaks Primary School,51.485775,-0.042089
primary_school,Myatt Garden Primary School,51.470336,-0.031432
primary_school,Horniman Primary School,51.443803,-0.05921
primary_school,Perrymount Primary School,51.436996,-0.046779
primary_school,Ashmead Primary School,51.469229,-0.025519
primary_school,Brindishe Lee School,51.453718,0.008802
primary_school,Kilmorie Primary School,51.438723,-0.039828
primary_school,All Saints' Church of England Primary School Blackheath,51.469484,0.003462
primary_school,Good Shepherd RC School,51.426513,0.010515
primary_school,Holy Trinity Church of England Primary School,51.435539,-0.05651
primary_school,St Margaret's Lee CofE Primary School,51.4596,0.005087
primary_school,St Augustine's Catholic Primary School and Nursery,51.424097,-0.016591
primary_school,St Bartholomews's Church of England Primary School,51.430993,-0.055149
primary_school,St John Baptist Southend Church of England Primary School,51.428977,-0.011661
primary_school,St Joseph's Catholic Primary School,51.478876,-0.025347
primary_school,St Mary's Lewisham Church of England Primary School,51.455063,-0.015263
primary_school,St Saviour's Catholic Primary School,51.460079,-0.010324
primary_school,St William of York Catholic Primary School,51.444306,-0.039186
primary_school,Holy Cross Catholic Primary School,51.442822,-0.0167
primary_school,"Trinity Church of England School, Lewisham",51.455207,0.007457
primary_school,Albion Primary School,51.499945,-0.051653
primary_school,Bellenden Primary School,51.464888,-0.067774
primary_school,Bird In Bush School,51.480428,-0.063431
primary_school,Crampton Primary,51.489971,-0.10094
primary_school,Crawford Primary School,51.472107,-0.095677
primary_school,Goodrich Community Primary School,51.449939,-0.068103
primary_school,Grange Primary School,51.496146,-0.08194
primary_school,Heber Primary School,51.452862,-0.073608
primary_school,Hollydale Primary School,51.467685,-0.052538
primary_school,Ilderton Primary School,51.485008,-0.054379
primary_school,Ivydale Primary School,51.459613,-0.046246
primary_school,John Ruskin Primary School and Language Classes,51.483058,-0.09718
primary_school,Keyworth Primary School,51.486696,-0.104691
primary_school,Dulwich Wood Primary School,51.431926,-0.082876
primary_school,Michael Faraday School,51.485253,-0.088389
primary_school,Riverside Primary School,51.499524,-0.064811
primary_school,Robert Browning Primary School,51.488838,-0.092604
primary_school,Snowsfields Primary School,51.50151,-0.083876
primary_school,Southwark Park Primary School,51.494142,-0.058023
primary_school,Tower Bridge Primary School,51.501586,-0.077014
primary_school,Victory Primary School,51.492933,-0.092836
primary_school,Phoenix Primary School,51.486261,-0.0687
primary_school,Pilgrims' Way Primary School,51.480484,-0.055939
primary_school,Alfred Salter Primary School,51.499603,-0.043571
primary_school,Oliver Goldsmith Primary School,51.474844,-0.078197
primary_school,Boutcher Church of England Primary School,51.493849,-0.076231
primary_school,Dulwich Village Church of England Infants' School,51.452158,-0.086591
primary_school,English Martyrs' Roman Catholic Primary School,51.490638,-0.088322
primary_school,St James the Great Roman Catholic Primary School,51.474356,-0.073105
primary_school,St Francis RC Primary School,51.48003,-0.067077
primary_school,St George's Church of England Primary School,51.480394,-0.084344
primary_school,St James' Church of England Primary School,51.497837,-0.067764
primary_school,St John's and St Clement's Church of England Primary School,51.463137,-0.071735
primary_school,"Saint Joseph's Catholic Primary School, the Borough",51.502453,-0.092611
primary_school,St Jude's Church of England Primary School,51.496859,-0.105365
primary_school,Peter Hills with St Mary's and St Paul's CofE Primary School,51.506205,-0.042567
primary_school,St Peter's Church of England Primary School,51.486169,-0.093305
primary_school,The Cathedral School of St Saviour and St Mary Overie,51.50287,-0.093977
primary_school,St John's Roman Catholic Primary School,51.500297,-0.041509
primary_school,St Joseph's Catholic Junior School,51.479265,-0.098994
primary_school,St Joseph's Catholic Infants School,51.479265,-0.098994
primary_school,Friars Primary Foundation School,51.501494,-0.1034
primary_school,Ben Jonson Primary School,51.521039,-0.038587
primary_school,Bonner Primary School,51.529724,-0.048695
primary_school,Old Palace Primary School,51.527634,-0.01417
primary_school,Cayley Primary School,51.516046,-0.038413
primary_school,Blue Gate Fields Junior School,51.510555,-0.054314
primary_school,Chisenhale Primary School,51.532872,-0.039001
primary_school,Cubitt Town Primary School,51.4948,-0.00982
primary_school,Globe Primary School,51.528961,-0.051496
primary_school,Hague Primary School,51.524951,-0.05912
primary_school,Harbinger Primary School,51.489443,-0.020051
primary_school,John Scurr Primary School,51.522133,-0.052422
primary_school,Lawdale Junior School,51.528414,-0.062448
primary_school,Elizabeth Selby Infants' School,51.528414,-0.063529
primary_school,Marion Richardson Primary School,51.513835,-0.04606
primary_school,Marner Primary School,51.522927,-0.012371
primary_school,Mayflower Primary School,51.511702,-0.020195
primary_school,Mowlem Primary School,51.533666,-0.054309
primary_school,Blue Gate Fields Infants' School,51.510555,-0.054314
primary_school,Olga Primary School,51.530767,-0.036266
primary_school,Stepney Park Primary School,51.518761,-0.051312
primary_school,Manorfield Primary School,51.518257,-0.013281
primary_school,Stewart Headlam Primary School,51.523043,-0.059547
primary_school,Wellington Primary School,51.5257,-0.024245
primary_school,Woolmore Primary School,51.510512,-0.008862
primary_school,Thomas Buxton Primary School,51.521746,-0.06485
primary_school,Seven Mills Primary School,51.498187,-0.024008
primary_school,Osmani Primary School,51.5211,-0.064978
primary_school,Bangabandhu Primary School,51.525966,-0.051999
primary_school,Halley Primary School,51.518043,-0.037375
primary_school,Bigland Green Primary School,51.513164,-0.05978
primary_school,Kobi Nazrul Primary School,51.515973,-0.064921
primary_school,William Davis Primary School,51.524185,-0.067197
primary_school,Christ Church CofE School,51.518822,-0.071892
primary_school,Stepney Greencoat Church of England Primary School,51.514155,-0.032354
primary_school,St Agnes RC Primary School,51.527521,-0.018673
primary_school,St Edmund's Catholic School,51.491036,-0.022834
primary_school,St John's Church of England Primary School,51.530025,-0.054377
primary_school,St Luke's Church of England Primary School,51.490245,-0.005337
primary_school,St Paul With St Luke CofE Primary Federation,51.518049,-0.028626
primary_school,St Paul's Whitechapel Church of England Primary School,51.51009,-0.065848
primary_school,St Peter's London Docks CofE Primary School,51.506138,-0.055309
primary_school,St Saviour's Church of England Primary School,51.516375,-0.017355
primary_school,English Martyrs Roman Catholic Primary School,51.51284,-0.071756
primary_school,Alderbrook Primary School,51.448596,-0.149862
primary_school,Allfarthing Primary School,51.453508,-0.185675
primary_school,Beatrix Potter Primary School,51.444033,-0.182352
primary_school,Brandlehow Primary School,51.46137,-0.206841
primary_school,Earlsfield Primary School,51.44151,-0.186136
primary_school,Falconbrook Primary School,51.468491,-0.174714
primary_school,Furzedown Primary School,51.42248,-0.153189
primary_school,Honeywell Junior School,51.454743,-0.162755
primary_school,Honeywell Infant School,51.454743,-0.162755
primary_school,Hotham Primary School,51.464715,-0.22102
primary_school,John Burns Primary School,51.469514,-0.152774
primary_school,Penwortham Primary School,51.421981,-0.146607
primary_school,Riversdale Primary School,51.446539,-0.19909
primary_school,Sellincourt Primary School,51.423584,-0.168535
primary_school,Shaftesbury Park Primary School,51.468603,-0.157173
primary_school,Smallwood Primary School and Language Unit,51.431013,-0.179531
primary_school,Swaffield School,51.45119,-0.185767
primary_school,West Hill Primary School,51.456319,-0.198806
primary_school,Sheringdale Primary School,51.446731,-0.204004
primary_school,Southmead Primary School,51.445297,-0.216091
primary_school,Granard Primary School,51.456164,-0.232379
primary_school,Heathmere Primary School,51.445651,-0.241908
primary_school,Ronald Ross Primary School,51.449856,-0.216633
primary_school,Albemarle Primary School,51.441935,-0.213804
primary_school,"All Saints' CofE Primary School, Putney",51.467401,-0.22738
primary_school,Holy Ghost Catholic Primary School,51.447579,-0.157228
primary_school,Our Lady of Victories Catholic Primary School,51.463635,-0.221566
primary_school,Roehampton Church Forest Primary School,51.448931,-0.237565
primary_school,St Boniface RC Primary School,51.427193,-0.165284
primary_school,St Faith's CofE Primary School,51.459329,-0.186423
primary_school,St George's CofE Primary School,51.476889,-0.139227
primary_school,St Joseph's Catholic Primary and Nursery School,51.459203,-0.200449
primary_school,St Mary's CofE Nursery and Primary School,51.465893,-0.221047
primary_school,Trinity St Mary's CofE Primary School,51.442541,-0.155388
primary_school,St Mary's RC Voluntary Aided Primary School,51.476883,-0.146212
primary_school,St Michael's CofE Primary School,51.45042,-0.204104
primary_school,"Sacred Heart Catholic Primary School, Roehampton",51.457563,-0.24171
primary_school,Our Lady Queen of Heaven RC School,51.447382,-0.22132
primary_school,St Anselm's Catholic Primary School,51.435696,-0.157577
primary_school,Hillbrook School,51.430701,-0.158411
primary_school,St John's Wood Primary School,51.532798,-0.169101
primary_school,Edward Wilson Primary School,51.521399,-0.189551
primary_school,Essendine Primary School,51.528064,-0.194967
primary_school,Hallfield Primary School,51.514049,-0.186455
primary_school,Queen's Park Primary School,51.527422,-0.208212
primary_school,All Souls CofE Primary School,51.519846,-0.13863
primary_school,Burdett-Coutts and Townshend Foundation CofE Primary School,51.495135,-0.135228
primary_school,Hampden Gurney CofE Primary School,51.516809,-0.164452
primary_school,St Augustines Federated Schools: CofE Primary School,51.534532,-0.191582
primary_school,St Barnabas' CofE Primary School,51.49053,-0.151651
primary_school,St Clement Danes CofE Primary School,51.513564,-0.119156
primary_school,St Edward's Catholic Primary School,51.52333,-0.165704
primary_school,St Gabriel's CofE Primary School,51.486348,-0.142558
primary_school,St George's Hanover Square CofE Primary School,51.508823,-0.150118
primary_school,Soho Parish CofE Primary School,51.51174,-0.134392
primary_school,St James & St John Church of England Primary School,51.51298,-0.179551
primary_school,St Luke's CofE Primary School,51.532244,-0.20302
primary_school,St Mary Magdalene & St Stephen's CofE Primary School,51.522554,-0.189822
primary_school,St Mary's Bryanston Square CofE School,51.52042,-0.163053
primary_school,St. Mary of the Angels Catholic Primary School,51.517922,-0.197948
primary_school,"St Matthew's School, Westminster",51.497389,-0.131117
primary_school,St Peter's CofE School,51.524139,-0.196967
primary_school,St Peter's Eaton Square CofE Primary School,51.49612,-0.146886
primary_school,St Saviour's CofE Primary School,51.523622,-0.18681
primary_school,St Vincent's Catholic Primary School,51.518621,-0.15269
primary_school,Christ Church Bentinck CofE Primary School,51.521452,-0.166385
primary_school,Dorothy Barley Infants' School,51.546916,0.115337
primary_school,Manor Junior School,51.542642,0.101496
primary_school,Manor Primary School,51.542642,0.101496
primary_school,Northbury Primary School,51.541364,0.075263
primary_school,Ripple Primary School,51.535954,0.090748
primary_school,Beam Primary School,51.52825,0.16401
primary_school,Furze Infant School,51.571476,0.140087
primary_school,Grafton Primary School,51.558805,0.140603
primary_school,Marsh Green Primary School,51.53116,0.151965
primary_school,Rush Green Primary School,51.563123,0.176718
primary_school,The Leys Primary School,51.535694,0.167982
primary_school,Warren Junior School,51.576259,0.142664
primary_school,"Thomas Arnold Primary School, Rowdowns Road",51.536962,0.145043
primary_school,Valence Primary School,51.557991,0.131966
primary_school,Village Infants' School,51.538712,0.15258
primary_school,Rose Lane Primary School,51.585879,0.135841
primary_school,William Bellamy Primary School,51.559166,0.154325
primary_school,Parsloes Primary School,51.543638,0.144318
primary_school,Five Elms Primary School,51.555094,0.145362
primary_school,Henry Green Primary School,51.561828,0.127673
primary_school,Roding Primary School,51.549363,0.12624
primary_school,Becontree Primary School,51.556826,0.117384
primary_school,John Perry Primary School,51.541981,0.170848
primary_school,William Ford CofE Junior School,51.538712,0.15258
primary_school,St Peter's Catholic Primary School,51.531892,0.144401
primary_school,Eastbrook School,51.551475,0.163699
primary_school,Eastbury Community School,51.542474,0.09024
primary_school,Robert Clack School,51.562679,0.153958
primary_school,Barnfield Primary School,51.60074,-0.264645
primary_school,Brookland Junior School,51.590235,-0.18836
primary_school,Brookland Infant and Nursery School,51.590235,-0.18836
primary_school,Brunswick Park Primary and Nursery School,51.630235,-0.148145
primary_school,Church Hill School,51.635275,-0.159269
primary_school,Colindale Primary School,51.588744,-0.247072
primary_school,Coppetts Wood Primary School,51.602779,-0.151977
primary_school,Courtland School,51.627294,-0.252551
primary_school,Cromer Road Primary School,51.653226,-0.178491
primary_school,Deansbrook Infant School,51.613073,-0.260766
primary_school,Edgware Primary School,51.610087,-0.275308
primary_school,Fairway Primary School and Children's Centre,51.627333,-0.25697
primary_school,Foulds School,51.656573,-0.210178
primary_school,Frith Manor Primary School,51.614994,-0.202021
primary_school,Garden Suburb Junior School,51.5849,-0.197522
primary_school,Garden Suburb Infant School,51.5849,-0.197522
primary_school,Goldbeaters Primary School,51.604083,-0.257225
primary_school,Hollickwood Primary School,51.605,-0.144045
primary_school,Holly Park Primary School,51.616972,-0.151054
primary_school,Livingstone Primary and Nursery School,51.655514,-0.166632
primary_school,Manorside Primary School,51.600787,-0.181038
primary_school,Monkfrith Primary School,51.636753,-0.146347
primary_school,Moss Hall Junior School,51.609916,-0.185829
primary_school,Moss Hall Infant School,51.609916,-0.185829
primary_school,Northside Primary School,51.61603,-0.179374
primary_school,Woodridge Primary School,51.623931,-0.193707
primary_school,Tudor Primary School,51.600319,-0.177562
primary_school,Underhill School,51.645413,-0.205443
primary_school,Whitings Hill Primary School,51.645508,-0.218187
primary_school,Chalgrove Primary School,51.591775,-0.206691
primary_school,Sunnyfields Primary School,51.591103,-0.231736
primary_school,Queenswell Infant & Nursery School,51.62709,-0.170089
primary_school,Queenswell Junior School,51.62709,-0.170089
primary_school,Danegrove Primary School,51.643584,-0.158715
primary_school,All Saints' CofE Primary School NW2,51.562123,-0.199952
primary_school,Christ Church Primary School,51.658858,-0.212025
primary_school,Holy Trinity CofE Primary School,51.591139,-0.168387
primary_school,Monken Hadley CofE Primary School,51.662903,-0.190755
primary_school,St John's CofE Junior Mixed and Infant School,51.616803,-0.155741
primary_school,St John's CofE Primary and Nursery School,51.626704,-0.177054
primary_school,St Mary's CofE Primary School,51.603572,-0.200133
primary_school,"St Mary's CofE Primary School, East Barnet",51.641019,-0.161493
primary_school,St Paul's CofE Primary School N11,51.616235,-0.144237
primary_school,St Paul's CofE Primary School NW7,51.620557,-0.231415
primary_school,"St Andrew's CofE Voluntary Aided Primary School, Totteridge",51.629997,-0.196414
primary_school,Trent CofE Primary School,51.650899,-0.152738
primary_school,All Saints' CofE Nursery and Primary School N20,51.629005,-0.167758
primary_school,The Annunciation Catholic Infant School,51.602768,-0.260164
primary_school,Our Lady of Lourdes RC School,51.603226,-0.175973
primary_school,St Agnes' Catholic Primary School,51.560365,-0.210798
primary_school,St Catherine's RC School,51.648776,-0.193703
primary_school,St Vincent's Catholic Primary School,51.617856,-0.223416
primary_school,St Theresa's Catholic Primary School,51.594759,-0.18844
primary_school,St Joseph's Catholic Primary School,51.587295,-0.231408
primary_school,Sacred Heart Roman Catholic Primary School,51.630399,-0.163208
primary_school,Blessed Dominic Catholic Primary School,51.600828,-0.240961
primary_school,Rosh Pinah Primary School,51.627022,-0.270621
primary_school,Menorah Primary School for Girls,51.574488,-0.206997
primary_school,The Annunciation RC Junior School,51.61182,-0.25807
primary_school,Mathilda Marks-Kennedy Jewish Primary School,51.615621,-0.254891
primary_school,Crook Log Primary School,51.457999,0.12654
primary_school,Danson Primary School,51.457325,0.106615
primary_school,Upton Primary School,51.449383,0.135005
primary_school,Birkbeck Primary School,51.431935,0.105806
primary_school,Longlands Primary School,51.431185,0.090407
primary_school,Dulverton Primary School,51.436389,0.080443
primary_school,Parkway Primary School,51.4928,0.13408
primary_school,Foster's Primary School,51.463085,0.12181
primary_school,St Stephen's Catholic Primary School,51.464432,0.104466
primary_school,Our Lady of the Rosary Catholic Primary School,51.447564,0.091759
primary_school,St Joseph's Catholic Primary School,51.453955,0.172009
primary_school,St Fidelis Catholic Primary School,51.477625,0.16275
primary_school,St John Fisher Catholic Primary School,51.495001,0.132209
primary_school,Peel Park Primary School and Nursery,53.807329,-1.734997
primary_school,Anson Primary School,51.553634,-0.219342
primary_school,Brentfield Primary School,51.546797,-0.262934
primary_school,Carlton Vale Infant School,51.53176,-0.200227
primary_school,Harlesden Primary School,51.53709,-0.254796
primary_school,Uxendon Manor Primary School,51.583404,-0.297927
primary_school,Kingsbury Green Primary School,51.583289,-0.26977
primary_school,Leopold Primary School,51.544445,-0.246886
primary_school,Lyon Park Primary School,51.54345,-0.287938
primary_school,Malorees Primary School,51.541464,-0.213804
primary_school,Northview Junior and Infant School,51.555758,-0.247533
primary_school,Park Lane Primary School,51.555838,-0.293893
primary_school,Preston Park Primary School,51.571456,-0.299354
primary_school,Roe Green Junior School,51.590079,-0.27227
primary_school,Roe Green Infant School,51.590079,-0.27227
primary_school,Barham Primary School,51.548435,-0.306746
primary_school,Wykeham Primary School,51.562834,-0.254763
primary_school,Elsley Primary School,51.548803,-0.286887
primary_school,Donnington Primary School,51.541825,-0.233489
primary_school,The Stonebridge School,51.540603,-0.263675
primary_school,Newfield Primary School,51.541955,-0.243996
primary_school,Mitchell Brook Primary School,51.548863,-0.256149
primary_school,Chalkhill Primary School,51.562044,-0.270634
primary_school,Salusbury Primary School,51.536938,-0.205416
primary_school,Oliver Goldsmith Primary School,51.582959,-0.257745
primary_school,Mora Primary School,51.558881,-0.225023
primary_school,Fryent Primary School,51.577126,-0.264044
primary_school,Christ Church CofE Primary School,51.541333,-0.204652
primary_school,John Keble CofE Primary School,51.53799,-0.247033
primary_school,Princess Frederica CofE Primary School,51.533015,-0.225337
primary_school,St Mary's CofE Primary School,51.548354,-0.252173
primary_school,St Joseph's Catholic Junior School,51.552128,-0.28793
primary_school,St Mary Magdalen's Catholic Junior School,51.547748,-0.228514
primary_school,St Robert Southwell Catholic Primary School,51.581763,-0.268082
primary_school,Convent of Jesus and Mary RC Infant School,51.547934,-0.227194
primary_school,Our Lady of Lourdes Catholic Primary School,51.540767,-0.265024
primary_school,St Joseph's Catholic Infant School,51.551819,-0.287711
primary_school,Sinai Jewish Primary School,51.579585,-0.28202
primary_school,St Joseph's Roman Catholic Primary School,51.544244,-0.250932
primary_school,The Kilburn Park School Foundation,51.532156,-0.199635
primary_school,Islamia Primary School,51.539515,-0.208054
primary_school,Edgebury Primary School,51.425565,0.07214
primary_school,Poverest Primary School,51.391496,0.101175
primary_school,Beulah Junior School,51.404313,-0.099084
primary_school,Elmwood Junior School,51.386168,-0.105873
primary_school,Elmwood Infant School,51.386168,-0.105873
primary_school,Howard Primary School,51.364598,-0.101649
primary_school,Purley Oaks Primary School,51.353123,-0.096091
primary_school,Winterbourne Junior Girls' School,51.399314,-0.114717
primary_school,Winterbourne Nursery and Infants' School,51.399314,-0.114717
primary_school,Beaumont Primary School,51.328149,-0.121111
primary_school,Gresham Primary School,51.333688,-0.077818
primary_school,Smitham Primary School,51.318658,-0.143973
primary_school,The Hayes Primary School,51.316721,-0.10895
primary_school,Forestdale Primary School,51.349346,-0.039437
primary_school,Heavers Farm Primary School,51.393305,-0.081386
primary_school,Downsview Primary and Nursery School,51.415268,-0.101938
primary_school,Park Hill Infant School,51.37087,-0.089206
primary_school,Greenvale Primary School,51.339275,-0.05187
primary_school,Rockmount Primary School,51.419449,-0.089784
primary_school,Norbury Manor Primary School,51.410077,-0.128122
primary_school,All Saints CofE Primary School,51.41223,-0.086576
primary_school,St John's CofE Primary School,51.37289,-0.049696
primary_school,Coulsdon CofE Primary School,51.308191,-0.12372
primary_school,Christ Church CofE Primary School (Purley),51.34267,-0.110883
primary_school,St Joseph's RC Junior School,51.421281,-0.099545
primary_school,Margaret Roper Catholic Primary School,51.34406,-0.120173
primary_school,St Joseph's RC Infant School,51.422095,-0.099296
primary_school,Selsdon Primary and Nursery School,51.34695,-0.055895
primary_school,Acton Gardens Primary School,51.50303,-0.273244
primary_school,East Acton Primary School,51.51143,-0.256267
primary_school,Oldfield Primary School,51.537336,-0.346927
primary_school,North Ealing Primary School,51.526092,-0.317565
primary_school,St John's Primary School,51.51204,-0.324078
primary_school,St Mark's Primary School,51.506934,-0.340635
primary_school,West Twyford Primary School,51.534228,-0.283252
primary_school,West Acton Primary School,51.517468,-0.278463
primary_school,Mayfield Primary School,51.52068,-0.34802
primary_school,Beaconsfield Primary and Nursery School,51.50767,-0.382354
primary_school,Coston Primary School,51.533874,-0.350772
primary_school,Downe Manor Primary School,51.533812,-0.40415
primary_school,Drayton Green Primary School,51.515062,-0.324702
primary_school,North Primary School,51.51283,-0.373755
primary_school,Ravenor Primary School,51.532932,-0.366305
primary_school,Selborne Primary School,51.537067,-0.334882
primary_school,Hambrough Primary School,51.508385,-0.378121
primary_school,Hobbayne Primary School,51.516793,-0.337019
primary_school,John Perryn Primary School,51.518955,-0.255576
primary_school,Southfield Primary School,51.501359,-0.256925
primary_school,Allenby Primary School,51.519982,-0.365587
primary_school,Blair Peach Primary School,51.507743,-0.383086
primary_school,Clifton Primary School,51.498157,-0.382417
primary_school,Dairy Meadow Primary School,51.501897,-0.373222
primary_school,Derwentwater Primary School,51.51021,-0.269269
primary_school,Durdans Park Primary School,51.523392,-0.376117
primary_school,Fielding Primary School,51.501048,-0.320692
primary_school,Gifford Primary School,51.536113,-0.373905
primary_school,Greenwood Primary School,51.553833,-0.350454
primary_school,"Havelock Primary School, Nursery & Arp",51.500921,-0.374884
primary_school,Horsenden Primary School,51.550111,-0.337132
primary_school,Willow Tree Primary School,51.550167,-0.379722
primary_school,Lady Margaret Primary School,51.523702,-0.373137
primary_school,Little Ealing Primary School,51.498206,-0.308781
primary_school,Oaklands Primary School,51.505102,-0.331264
primary_school,Perivale Primary School,51.537405,-0.311323
primary_school,Stanhope Primary School,51.526951,-0.355981
primary_school,Viking Primary School,51.533421,-0.392629
primary_school,Wolf Fields Primary School,51.496093,-0.374883
primary_school,Featherstone Primary and Nursery School,51.498086,-0.395558
primary_school,Three Bridges Primary School,51.500683,-0.364822
primary_school,Montpelier Primary School,51.523536,-0.303677
primary_school,Tudor Primary School,51.514662,-0.3847
primary_school,Vicar's Green Primary School,51.534813,-0.310582
primary_school,The Edward Betham Church of England Primary School,51.533874,-0.350772
primary_school,Capel Manor Primary School,51.678702,-0.054593
primary_school,Carterhatch Infant School,51.661025,-0.055856
primary_school,Chase Side Primary School,51.659077,-0.089454
primary_school,Firs Farm Primary School,51.623916,-0.082812
primary_school,Garfield Primary School,51.613914,-0.136257
primary_school,George Spicer Primary School,51.651316,-0.067995
primary_school,Hadley Wood Primary School,51.670193,-0.173183
primary_school,Hazelwood Junior School,51.617625,-0.102954
primary_school,Hazelwood Infant School,51.617625,-0.102954
primary_school,Prince of Wales Primary School,51.669022,-0.023655
primary_school,The Raglan Junior School,51.636968,-0.072059
primary_school,Raglan Infant School,51.636609,-0.072667
primary_school,Suffolks Primary School,51.65765,-0.055104
primary_school,Tottenhall Infant School,51.611001,-0.105916
primary_school,Southbury Primary School,51.649719,-0.048649
primary_school,Bush Hill Park Primary School,51.645108,-0.062897
primary_school,St Michael at Bowes CofE Junior School,51.611034,-0.105222
primary_school,St John's CofE Primary School,51.674218,-0.095398
primary_school,Forty Hill CofE Primary School,51.670967,-0.061056
primary_school,St Andrew's CofE Primary School,51.657905,-0.077127
primary_school,St Andrew's Southgate Primary School (CE),51.634148,-0.127856
primary_school,Freezywater St George's CofE VA Primary School,51.673959,-0.038684
primary_school,St John and St James CofE Primary School,51.610468,-0.06661
primary_school,St James CofE Primary School,51.657406,-0.045832
primary_school,St Michael's CofE Primary School,51.664065,-0.088203
primary_school,St Paul's CofE Primary School,51.634743,-0.099378
primary_school,St Mary's Catholic Primary School,51.64798,-0.039227
primary_school,St Edmund's Catholic Primary School,51.629099,-0.055646
primary_school,St George's Catholic Primary School,51.659209,-0.08099
primary_school,St Monica's RC Primary School,51.622725,-0.120352
primary_school,Our Lady of Lourdes Catholic Primary School,51.615605,-0.136246
primary_school,Latymer All Saints CofE Primary School,51.625771,-0.068662
primary_school,St Matthew's CofE Primary School,51.64355,-0.043725
primary_school,Belmont Junior School,51.592106,-0.094171
primary_school,Belmont Infant School,51.592106,-0.094171
primary_school,Bounds Green Junior School,51.606175,-0.12401
primary_school,Bounds Green Infant School,51.606175,-0.12401
primary_school,Campsbourne Junior School,51.590471,-0.122116
primary_school,Campsbourne Infant School,51.590471,-0.122116
primary_school,The Devonshire Hill Nursery & Primary School,51.607134,-0.080992
primary_school,Earlsmead Primary School,51.583836,-0.068506
primary_school,Highgate Primary School,51.579213,-0.155055
primary_school,Lancasterian Primary School,51.60157,-0.071811
primary_school,Coldfall Primary School,51.596749,-0.154532
primary_school,Tetherdown Primary School,51.587968,-0.151943
primary_school,Rokesly Junior School,51.583122,-0.119735
primary_school,Rokesly Infant & Nursery School,51.583122,-0.119735
primary_school,South Harringay Junior School,51.580459,-0.101226
primary_school,South Harringay Infant School,51.580399,-0.101416
primary_school,West Green Primary School,51.584832,-0.093667
primary_school,Coleridge Primary School,51.575725,-0.127299
primary_school,Welbourne Primary School,51.58807,-0.067287
primary_school,Lea Valley Primary School,51.603788,-0.060742
primary_school,Ferry Lane Primary School,51.585422,-0.057771
primary_school,Rhodes Avenue Primary School,51.601201,-0.135839
primary_school,Crowland Primary School,51.58063,-0.067083
primary_school,Weston Park Primary School,51.580589,-0.112666
primary_school,The Willow Primary School,51.596118,-0.082091
primary_school,St Aidan's Voluntary Controlled Primary School,51.575205,-0.110551
primary_school,St Michael's CofE Voluntary Aided Primary School,51.573657,-0.151167
primary_school,St James Church of England Primary School,51.586304,-0.14908
primary_school,St Mary's CofE Primary School,51.587718,-0.121494
primary_school,Our Lady of Muswell Catholic Primary School,51.594266,-0.148785
primary_school,St Paul's Catholic Primary School,51.597337,-0.115177
primary_school,St Martin of Porres Catholic Primary School,51.607914,-0.133282
primary_school,St John Vianney RC Primary School,51.585669,-0.097024
primary_school,"Newton Farm Nursery, Infant and Junior School",51.569285,-0.374569
primary_school,Roxeth Primary School,51.569305,-0.343848
primary_school,Marlborough Primary School,51.589697,-0.340479
primary_school,Grimsdyke School,51.612193,-0.376344
primary_school,Camrose Primary With Nursery,51.603344,-0.288286
primary_school,Belmont School,51.599682,-0.327467
primary_school,Kenmore Park Junior School,51.594076,-0.297196
primary_school,Longfield Primary School,51.580467,-0.369696
primary_school,Grange Primary School,51.572318,-0.358631
primary_school,Cannon Lane Primary School,51.58084,-0.388287
primary_school,Pinner Park Primary School,51.596903,-0.358625
primary_school,Stag Lane Primary School,51.599574,-0.280154
primary_school,Elmgrove Primary School & Nursery,51.589081,-0.323078
primary_school,Kenmore Park Infant and Nursery School,51.594076,-0.297196
primary_school,Roxbourne Primary School,51.569182,-0.383418
primary_school,Stanburn Primary School,51.606566,-0.309003
primary_school,Weald Rise Primary School,51.607355,-0.331416
primary_school,West Lodge Primary School,51.591617,-0.387949
primary_school,Norbury School,51.583389,-0.340161
primary_school,Vaughan Primary School,51.579998,-0.354833
primary_school,Glebe Primary School,51.591671,-0.296275
primary_school,St Anselm's Catholic Primary School,51.575713,-0.341061
primary_school,St Teresa's Catholic Primary School and Nursery,51.605025,-0.354939
primary_school,The James Oglethorpe Primary School,51.556424,0.271526
primary_school,Harold Wood Primary School,51.585375,0.235827
primary_school,Elm Park Primary School,51.54969,0.203554
primary_school,Hylands Primary School,51.571921,0.197284
primary_school,Harold Court Primary School,51.598501,0.241164
primary_school,Langtons Infant School & Nursery,51.563014,0.221397
primary_school,Suttons Primary School,51.550291,0.21795
primary_school,Whybridge Infant School,51.534439,0.190532
primary_school,Clockhouse Primary School,51.602129,0.164315
primary_school,Crownfield Junior School,51.591809,0.155812
primary_school,Crownfield Infant School,51.591809,0.155812
primary_school,Parklands Primary School,51.588617,0.173345
primary_school,Squirrels Heath Primary School,51.577157,0.20533
primary_school,Gidea Park Primary School,51.583819,0.193917
primary_school,Towers Infant School,51.569323,0.211575
primary_school,Parsonage Farm Primary School,51.524228,0.209475
primary_school,Towers Junior School,51.568474,0.210841
primary_school,Brady Primary School,51.513992,0.204296
primary_school,Scotts Primary School,51.544415,0.212876
primary_school,Broadford Primary School,51.601729,0.221814
primary_school,Newtons Primary School,51.52831,0.170962
primary_school,Nelmes Primary School,51.579221,0.233605
primary_school,Mead Primary School,51.60354,0.231101
primary_school,Rainham Village Primary School,51.519587,0.1956
primary_school,Hilldene Primary School,51.602548,0.207499
primary_school,St Edward's Church of England Voluntary Aided Primary School,51.583919,0.179848
primary_school,St Mary's Catholic Primary School,51.564701,0.196272
primary_school,La Salette Catholic Primary School,51.523224,0.191046
primary_school,St Patrick's Catholic Primary School,51.596239,0.158953
primary_school,St Ursula's Catholic Primary School,51.605527,0.208323
primary_school,St Joseph's Catholic Primary School,51.556471,0.248532
primary_school,St Peter's Catholic Primary School,51.584713,0.17876
primary_school,St Alban's Catholic Primary School,51.537401,0.198534
primary_school,Bourne Primary School,51.552229,-0.395616
primary_school,The Breakspear School,51.569923,-0.451672
primary_school,Colham Manor Primary School,51.521891,-0.45813
primary_school,Coteford Infant School,51.584199,-0.41106
primary_school,Deanesfield Primary School,51.559606,-0.390596
primary_school,Field End Infant School,51.566842,-0.38845
primary_school,Glebe Primary School,51.558427,-0.436454
primary_school,Harefield Infant and Junior School,51.603962,-0.48364
primary_school,Harlyn Primary School,51.596572,-0.402442
primary_school,Harmondsworth Primary School,51.486816,-0.479708
primary_school,Heathrow Primary School,51.49008,-0.460399
primary_school,Lady Bankes Primary School,51.570333,-0.407691
primary_school,Minet Junior School,51.511359,-0.408163
primary_school,Minet Infant and Nursery School,51.511359,-0.408163
primary_school,Newnham Junior School,51.574758,-0.393293
primary_school,Newnham Infant and Nursery School,51.574758,-0.393293
primary_school,Whitehall Junior School,51.53955,-0.481442
primary_school,Whiteheath Junior School,51.580404,-0.439163
primary_school,Yeading Junior School,51.522453,-0.398738
primary_school,Yeading Infant and Nursery School,51.521938,-0.398569
primary_school,Highfield Primary School,51.53457,-0.445158
primary_school,Rabbsfarm Primary School,51.516695,-0.473367
primary_school,Warrender Primary School,51.577322,-0.414504
primary_school,Whiteheath Infant & Nursery School,51.581166,-0.441057
primary_school,Frithwood Primary School,51.613476,-0.416928
primary_school,Ruislip Gardens Primary School,51.561691,-0.420314
primary_school,Bishop Winnington-Ingram CofE Primary School,51.577825,-0.434561
primary_school,Holy Trinity CofE Primary School,51.614161,-0.437168
primary_school,Dr Triplett's CofE Primary School,51.517928,-0.416438
primary_school,St Swithun Wells Catholic Primary School,51.564158,-0.392065
primary_school,Botwell House Catholic Primary School,51.507717,-0.420754
primary_school,St Catherine Catholic Primary School,51.503889,-0.478838
primary_school,St Mary's Catholic Primary School,51.543765,-0.486853
primary_school,Sacred Heart Catholic Primary School,51.567764,-0.424576
primary_school,Grange Park School,51.526774,-0.417587
primary_school,Hillside Infant School,51.607637,-0.410748
primary_school,Hillside Junior School,51.607637,-0.410748
primary_school,St Andrew's C of E Primary School,51.542612,-0.474879
primary_school,Hayes Park School,51.528672,-0.420981
primary_school,Belmont Primary School,51.493399,-0.262905
primary_school,Cardinal Primary School,51.446531,-0.40731
primary_school,Cavendish Primary School,51.481528,-0.257365
primary_school,Feltham Hill Infant and Nursery School,51.439306,-0.423604
primary_school,Grove Park Primary School,51.484575,-0.271205
primary_school,Hounslow Town Primary School,51.46926,-0.356227
primary_school,Isleworth Town Primary School,51.47359,-0.329188
primary_school,Lionel Primary School,51.493747,-0.295808
primary_school,Marlborough Primary School,51.478955,-0.327696
primary_school,Norwood Green Infant and Nursery School,51.492856,-0.380155
primary_school,Spring Grove Primary School,51.473505,-0.348601
primary_school,Strand-on-the-Green Junior School,51.487461,-0.280372
primary_school,Strand-on-the-Green Infant and Nursery School,51.487461,-0.280372
primary_school,Wellington Primary School,51.47453,-0.376902
primary_school,Worple Primary School,51.465646,-0.324512
primary_school,Ivybridge Primary School,51.456234,-0.332945
primary_school,Edward Pauling Primary School,51.443734,-0.426574
primary_school,The Smallberry Green Primary School,51.475648,-0.32786
primary_school,Grove Road Primary School,51.464487,-0.373127
primary_school,Beavers Community Primary School,51.469635,-0.400861
primary_school,The Blue School CofE Primary,51.469421,-0.324978
primary_school,St Paul's CofE Primary School,51.484797,-0.304942
primary_school,Our Lady and St John's Catholic Primary School,51.490568,-0.313515
primary_school,St Lawrence Catholic Primary School,51.445317,-0.409295
primary_school,"St Mary's Catholic Primary School, Isleworth",51.469379,-0.32711
primary_school,"St Mary's Catholic Primary School ,Chiswick",51.488032,-0.257534
primary_school,St Michael and St Martin Catholic Primary School,51.467061,-0.37914
primary_school,Burlington Junior School,51.399421,-0.247951
primary_school,Burlington Infant and Nursery School,51.399421,-0.247951
primary_school,Coombe Hill Infant School,51.41469,-0.266623
primary_school,Ellingham Primary School,51.357937,-0.309686
primary_school,Tolworth Junior School,51.382217,-0.292338
primary_school,Tolworth Infant and Nursery School,51.382217,-0.292338
primary_school,Coombe Hill Junior School,51.41469,-0.266623
primary_school,Maple Infants' School,51.395454,-0.306593
primary_school,Alexandra Primary School,51.417143,-0.287959
primary_school,King Athelstan Primary School,51.405523,-0.295237
primary_school,Grand Avenue Primary and Nursery School,51.389623,-0.276683
primary_school,Malden Manor Primary and Nursery School,51.386151,-0.259596
primary_school,King's Oak Primary School,51.404745,-0.27403
primary_school,Lovelace Primary School,51.364374,-0.317063
primary_school,Christ Church New Malden CofE Primary School,51.404197,-0.266129
primary_school,Christ Church CofE Primary School,51.392694,-0.286816
primary_school,Malden Parochial CofE Primary School,51.382378,-0.258661
primary_school,St Andrew's and St Mark's CofE Junior School,51.394992,-0.306941
primary_school,St John's C of E Primary School,51.404139,-0.299616
primary_school,St Paul's CofE Primary School,51.370026,-0.304917
primary_school,"St Paul's CofE Primary School, Kingston Hill",51.417294,-0.286573
primary_school,St Matthew's CofE Primary School,51.387803,-0.299215
primary_school,St Mary's CofE (Aided) Primary School,51.359399,-0.298803
primary_school,St Luke's CofE Primary School,51.415852,-0.296866
primary_school,Bond Primary School,51.408618,-0.166085
primary_school,Dundonald Primary School,51.416192,-0.209847
primary_school,Garfield Primary School,51.423408,-0.184393
primary_school,Hatfeild Primary School,51.391727,-0.217787
primary_school,Hollymount School,51.414233,-0.230631
primary_school,Joseph Hood Primary School,51.405987,-0.21463
primary_school,Links Primary School,51.420033,-0.155402
primary_school,Lonesome Primary School,51.409432,-0.149775
primary_school,Merton Abbey Primary School,51.413454,-0.190842
primary_school,Merton Park Primary School,51.409022,-0.201427
primary_school,Morden Primary School,51.392708,-0.203116
primary_school,Pelham Primary School,51.416491,-0.197668
primary_school,Haslemere Primary School,51.407628,-0.180417
primary_school,Poplar Primary School,51.402741,-0.199991
primary_school,St Mark's Primary School,51.40671,-0.161977
primary_school,The Sherwood School,51.398275,-0.141427
primary_school,Singlegate Primary School,51.417611,-0.176497
primary_school,Wimbledon Park Primary School,51.438047,-0.195942
primary_school,Abbotsbury Primary School,51.395125,-0.195906
primary_school,West Wimbledon Primary School,51.405712,-0.236266
primary_school,Cranmer Primary School,51.397064,-0.165023
primary_school,Gorringe Park Primary School,51.412173,-0.156509
primary_school,Hillcross Primary School,51.398111,-0.210596
primary_school,Liberty Primary,51.409922,-0.170677
primary_school,William Morris Primary School,51.402023,-0.133382
primary_school,Wimbledon Chase Primary School,51.41298,-0.21269
primary_school,All Saints' CofE Primary School,51.41863,-0.183044
primary_school,St Matthew's CofE Primary School,51.414908,-0.24385
primary_school,Holy Trinity CofE Primary School,51.422492,-0.195519
primary_school,Bishop Gilpin CofE Primary School,51.427316,-0.206923
primary_school,St Peter and Paul Catholic Primary School,51.399792,-0.167545
primary_school,Sacred Heart Catholic Primary School,51.400528,-0.24016
primary_school,St Teresa's Catholic Primary School,51.389698,-0.181689
primary_school,St Mary's Catholic Primary School,51.417706,-0.200655
primary_school,The Priory CofE School,51.424898,-0.193497
primary_school,Altmore Infant School,51.53659,0.058362
primary_school,Avenue Primary School,51.550088,0.050158
primary_school,Brampton Primary School,51.524548,0.045579
primary_school,Carpenters Primary School,51.536738,-0.005915
primary_school,Dersingham Primary School,51.550677,0.061695
primary_school,Godwin Junior School,51.552099,0.029664
primary_school,Woodgrange Infant School,51.551203,0.028932
primary_school,Grange Primary School,51.524801,0.016946
primary_school,Keir Hardie Primary School,51.516496,0.020327
primary_school,Lathom Junior School,51.537577,0.053345
primary_school,Stratford Manor Primary School & Nursery,51.532629,0.007257
primary_school,Maryland Primary School,51.549846,0.007971
primary_school,Odessa Infant School,51.549439,0.018627
primary_school,Park Primary School,51.541758,0.015013
primary_school,Roman Road Primary School,51.521835,0.044348
primary_school,Salisbury Primary School,51.549713,0.046939
primary_school,William Davies Primary School,51.542686,0.041475
primary_school,Star Primary School,51.52112,0.006635
primary_school,St Stephen's Primary School,51.537948,0.038292
primary_school,Winsor Primary School,51.510687,0.06169
primary_school,Colegrave Primary School,51.548301,0.0016
primary_school,Southern Road Primary School,51.530567,0.029355
primary_school,Ellen Wilkinson Primary School,51.516,0.045355
primary_school,Essex Primary School,51.546296,0.054098
primary_school,St James' CofE Junior School,51.548997,0.018189
primary_school,West Ham Church Primary School,51.536993,0.010765
primary_school,St Luke's Primary School,51.513479,0.01378
primary_school,Manford Primary School,51.609627,0.100573
primary_school,Cleveland Road Primary School,51.554656,0.074728
primary_school,Fairlop Primary School,51.599814,0.080511
primary_school,Gilbert Colvin Primary School,51.595508,0.06976
primary_school,Glade Primary School,51.594617,0.05801
primary_school,Goodmayes Primary School,51.563484,0.115154
primary_school,Gordon Primary School,51.556423,0.087128
primary_school,Mossford Green Primary School,51.591446,0.079739
primary_school,Newbury Park Primary School,51.575854,0.085247
primary_school,Uphall Primary School,51.547975,0.072131
primary_school,William Torbitt Primary School,51.578514,0.098994
primary_school,Aldersbrook Primary School,51.564171,0.034631
primary_school,Roding Primary School,51.603911,0.055166
primary_school,Wells Primary School,51.616572,0.02731
primary_school,Snaresbrook Primary School,51.585624,0.023897
primary_school,Fullwood Primary School,51.58497,0.079299
primary_school,Woodlands Primary School,51.549136,0.083766
primary_school,Grove Primary School,51.578711,0.120523
primary_school,Chadwell Primary School,51.568789,0.122211
primary_school,Coppice Primary School,51.612331,0.113279
primary_school,John Bramston Primary School,51.605484,0.107459
primary_school,Nightingale Primary School,51.585019,0.034465
primary_school,Barley Lane Primary School,51.569831,0.113284
primary_school,Wanstead Church School,51.57875,0.024645
primary_school,St Augustine's Catholic Primary School,51.580598,0.074336
primary_school,St Antony's Catholic Primary School,51.616156,0.024287
primary_school,St Bede's Catholic Primary School,51.577014,0.125871
primary_school,Wohl Ilford Jewish Primary School,51.593912,0.086738
primary_school,Seven Kings School,51.568514,0.085893
primary_school,Carlisle Infant School,51.423099,-0.36368
primary_school,Darell Primary and Nursery School,51.468773,-0.284573
primary_school,East Sheen Primary School,51.464782,-0.255426
primary_school,Hampton Hill Junior School,51.427256,-0.360036
primary_school,Hampton Junior School,51.41653,-0.373033
primary_school,Hampton Infant School and Nursery,51.419135,-0.376061
primary_school,Hampton Wick Infant and Nursery School,51.418316,-0.311171
primary_school,Heathfield Junior School,51.446877,-0.369666
primary_school,Heathfield Infant School,51.446877,-0.369666
primary_school,Lowther Primary School,51.483557,-0.238506
primary_school,Meadlands Primary School,51.434386,-0.31557
primary_school,Orleans Primary School,51.452524,-0.32184
primary_school,The Russell Primary School,51.444349,-0.304282
primary_school,Sheen Mount Primary School,51.461063,-0.276354
primary_school,Stanley Primary School,51.433894,-0.345398
primary_school,Trafalgar Junior School,51.442184,-0.34789
primary_school,Trafalgar Infant School,51.444985,-0.350782
primary_school,Barnes Primary School,51.468644,-0.250858
primary_school,Collis Primary School,51.42234,-0.325261
primary_school,Buckingham Primary School,51.427463,-0.376787
primary_school,Chase Bridge Primary School,51.453948,-0.345493
primary_school,The Vineyard School,51.453826,-0.297396
primary_school,St Richard's Church of England Primary School,51.436821,-0.31915
primary_school,Holy Trinity Church of England Primary School,51.463284,-0.284879
primary_school,St Mary Magdalen's Catholic Primary School,51.468914,-0.261747
primary_school,St John the Baptist Church of England Junior School,51.417415,-0.310384
primary_school,St Edmund's Catholic Primary School,51.452779,-0.360187
primary_school,St James's Catholic Primary School,51.437344,-0.346438
primary_school,St Mary's Church of England Primary School,51.449599,-0.327315
primary_school,St Stephen's C E Primary School,51.456912,-0.323723
primary_school,Sacred Heart Catholic Primary School,51.420363,-0.321551
primary_school,St Mary's and St Peter's Church of England Primary School,51.429079,-0.339429
primary_school,Bishop Perrin Church of England Primary School,51.44877,-0.366087
primary_school,Archdeacon Cambridge's Church of England Primary School,51.442044,-0.341808
primary_school,The King's Church of England Primary School,51.479994,-0.286283
primary_school,Hackbridge Primary School,51.378496,-0.157101
primary_school,High View Primary School,51.362476,-0.129647
primary_school,Devonshire Primary School,51.354255,-0.189642
primary_school,Robin Hood Infants' School,51.363809,-0.200929
primary_school,Dorchester Primary School,51.38039,-0.231577
primary_school,Beddington Infants' School,51.36877,-0.144863
primary_school,Robin Hood Junior School,51.365514,-0.19605
primary_school,Foresters Primary School,51.355799,-0.135549
primary_school,All Saints Benhilton CofE Primary School,51.372544,-0.191794
primary_school,Holy Trinity CofE Junior School,51.367702,-0.146688
primary_school,St Dunstan's Cheam CofE Primary School,51.356561,-0.219195
primary_school,St Mary's RC Junior School,51.364666,-0.166922
primary_school,St Mary's RC Infants School,51.366462,-0.167353
primary_school,Stanley Park Junior School,51.354856,-0.163508
primary_school,Chase Lane Primary School,51.615537,-0.023798
primary_school,Whitehall Primary School,51.625237,0.011342
primary_school,Downsell Primary School,51.55454,0.001182
primary_school,Newport School,51.563151,-0.00388
primary_school,Chapel End Infant School and Early Years Centre,51.597984,-0.013716
primary_school,Edinburgh Primary School,51.577844,-0.024567
primary_school,Greenleaf Primary School,51.589546,-0.024738
primary_school,Handsworth Primary School,51.607748,0.002293
primary_school,Thorpe Hall Primary School,51.597749,-0.001468
primary_school,The Winns Primary School,51.593,-0.024747
primary_school,Oakhill Primary School,51.606559,0.00822
primary_school,Henry Maynard Primary School,51.582322,-0.005378
primary_school,South Grove Primary School,51.578331,-0.029959
primary_school,Dawlish Primary School,51.565363,-0.009136
primary_school,Gwyn Jones Primary School,51.573166,0.003154
primary_school,George Tomlinson Primary School,51.566287,0.008883
primary_school,Mission Grove Primary School,51.583167,-0.029894
primary_school,Coppermill Primary School,51.581243,-0.040081
primary_school,Stoneydown Park School,51.585869,-0.036547
primary_school,Buxton School,51.556942,0.014227
primary_school,Parkside Primary School,51.625122,-0.014164
primary_school,The Jenny Hammond Primary School,51.554874,0.007414
primary_school,Chingford CofE Primary School,51.628667,0.002159
primary_school,St Mary's Catholic Primary School,51.631162,0.003483
primary_school,St Joseph's Catholic Junior School,51.568416,-0.016318
primary_school,St Patrick's Catholic Primary School,51.584969,-0.037048
primary_school,St Joseph's Catholic Infant School,51.564959,-0.0225
primary_school,Shaw Hill Primary School,52.487207,-1.845858
primary_school,Adderley Primary School,52.483819,-1.861037
primary_school,Barford Primary School,52.484448,-1.934913
primary_school,Beeches Junior School,52.540608,-1.907834
primary_school,Bordesley Green Primary School,52.478666,-1.838982
primary_school,Cherry Orchard Primary School,52.520157,-1.921081
primary_school,Colmore Junior School,52.427985,-1.899979
primary_school,Colmore Infant and Nursery School,52.427985,-1.899979
primary_school,Cotteridge Primary School,52.419292,-1.924349
primary_school,Anderton Park Primary School,52.451255,-1.875162
primary_school,Regents Park Community Primary School,52.47224,-1.869818
primary_school,George Dixon Primary School,52.477428,-1.955521
primary_school,Gilbertstone Primary School,52.45461,-1.80905
primary_school,Grendon Primary School,52.411832,-1.882374
primary_school,Gunter Primary School,52.521071,-1.808438
primary_school,Hall Green Junior School,52.431009,-1.844348
primary_school,Hall Green Infant School,52.431127,-1.845436
primary_school,Hawthorn Primary School,52.535789,-1.877135
primary_school,Ward End Primary School,52.49811,-1.831149
primary_school,Kingsland Primary School (NC),52.557582,-1.887664
primary_school,Lozells Junior and Infant School and Nursery,52.499699,-1.901673
primary_school,Lyndon Green Junior School,52.460539,-1.79569
primary_school,Lyndon Green Infant School,52.460762,-1.794968
primary_school,Marsh Hill Primary School,52.525001,-1.868866
primary_school,Nelson Primary School,52.48111,-1.915938
primary_school,Park Hill Primary School,52.450845,-1.88795
primary_school,Allens Croft Primary School,52.421127,-1.913611
primary_school,Raddlebarn Primary School,52.436806,-1.927643
primary_school,Redhill Primary School,52.462701,-1.83333
primary_school,Rednal Hill Junior School,52.391285,-2.001484
primary_school,Rednal Hill Infant School,52.391285,-2.001484
primary_school,Severne Junior Infant and Nursery School,52.433881,-1.821922
primary_school,Sladefield Infant School,52.492403,-1.832305
primary_school,Somerville Primary (NC) School,52.470929,-1.855116
primary_school,Stanville Primary School,52.461695,-1.778877
primary_school,St Benedict's Primary School,52.466906,-1.844854
primary_school,Stechford Primary School,52.479572,-1.813139
primary_school,Colebourne Primary School,52.49312,-1.807072
primary_school,Ladypool Primary School,52.461161,-1.874222
primary_school,Sundridge Primary School,52.557769,-1.896189
primary_school,Thornton Primary School,52.490814,-1.827966
primary_school,World's End Junior School,52.454394,-1.987286
primary_school,Yardley Wood Community Primary School,52.415791,-1.860648
primary_school,Bellfield Infant School (NC),52.416607,-1.973079
primary_school,Bellfield Junior School,52.416607,-1.973079
primary_school,Welsh House Farm Community School and Special Needs Resources Base,52.452855,-1.97394
primary_school,Chilcote Primary School,52.416435,-1.843664
primary_school,Blakesley Hall Primary School,52.475297,-1.815659
primary_school,Woodgate Primary School,52.43726,-2.006178
primary_school,Cofton Primary School,52.389896,-1.96851
primary_school,William Murdoch Primary School,52.509118,-1.936999
primary_school,Featherstone Primary School,52.525932,-1.850174
primary_school,Glenmead Primary School,52.541609,-1.900061
primary_school,Arden Primary School,52.455187,-1.862496
primary_school,Water Mill Primary School,52.445555,-1.947108
primary_school,Welford Primary School,52.50419,-1.920005
primary_school,Chad Vale Primary School,52.464208,-1.945452
primary_school,World's End Infant and Nursery School,52.454394,-1.987286
primary_school,Kitwell Primary School,52.431164,-2.009648
primary_school,Boldmere Junior School,52.544776,-1.843784
primary_school,Boldmere Infant School and Nursery,52.544776,-1.843784
primary_school,Minworth Junior and Infant School,52.527842,-1.768581
primary_school,Wylde Green Primary School,52.537772,-1.830496
primary_school,Moor Hall Primary School,52.585305,-1.814682
primary_school,Maney Hill Primary School,52.550651,-1.816096
primary_school,Penns Primary School,52.532951,-1.816495
primary_school,Kingsthorne Primary School,52.544281,-1.882434
primary_school,Woodcock Hill Primary School,52.431262,-1.98363
primary_school,Elms Farm Community Primary School,52.46377,-1.773229
primary_school,Bells Farm Primary School,52.406783,-1.907245
primary_school,Nelson Mandela School,52.456414,-1.874544
primary_school,Little Sutton Primary School,52.593032,-1.812037
primary_school,Coppice Primary School,52.580448,-1.82465
primary_school,Calshot Primary School,52.542396,-1.917473
primary_school,Grove School,52.505655,-1.933453
primary_school,New Hall Primary School,52.565767,-1.781527
primary_school,Christ Church CofE Controlled Primary School and Nursery,52.464019,-1.874331
primary_school,Moseley Church of England Primary School,52.443047,-1.884366
primary_school,"St James Church of England Primary School, Handsworth",52.508423,-1.949376
primary_school,St Matthew's CofE Primary School,52.489187,-1.878266
primary_school,St Saviour's C of E Primary School,52.491564,-1.857434
primary_school,St Mary's Church of England Primary School,52.438955,-1.943762
primary_school,Holy Family Catholic Primary School,52.46555,-1.845992
primary_school,Christ The King Catholic Primary School,52.543277,-1.87673
primary_school,Corpus Christi Catholic Primary School,52.480641,-1.812545
primary_school,English Martyrs' Catholic Primary School,52.451017,-1.863671
primary_school,Our Lady of Lourdes Catholic Primary School,52.422227,-1.860319
primary_school,St Catherine of Siena Catholic Primary School,52.471714,-1.901662
primary_school,St Anne's Catholic Primary School,52.470417,-1.879613
primary_school,St Mary's Catholic Primary School,52.456867,-1.953055
primary_school,St Patrick and St Edmund's Catholic Primary School,52.486254,-1.931627
primary_school,Our Lady and St Rose of Lima Catholic Primary School,52.436184,-1.961182
primary_school,King David Primary School,52.443889,-1.890498
primary_school,Bournville Village Primary,52.429709,-1.936847
primary_school,St Edward's Catholic Primary School,52.438859,-1.917872
primary_school,St Margaret Mary RC Junior and Infant School,52.533284,-1.863771
primary_school,St Dunstan's Catholic Primary School,52.432246,-1.889792
primary_school,St Gerard's Catholic Primary School,52.522625,-1.786619
primary_school,St Bernadette's Catholic Primary School,52.469434,-1.826356
primary_school,St Bernard's Catholic Primary School,52.436963,-1.86139
primary_school,St Jude's Catholic Primary School,52.405941,-1.889593
primary_school,St Alban's Catholic Primary School,52.414535,-1.88863
primary_school,St Martin de Porres Catholic Primary School,52.447719,-1.881779
primary_school,St Cuthbert's RC Junior and Infant (NC) School,52.486197,-1.818559
primary_school,SS John and Monica Catholic Primary School,52.450563,-1.893984
primary_school,Holly Hill Methodist CofE Infant School,52.404607,-2.016948
primary_school,Walmley Junior School,52.535534,-1.79092
primary_school,Walmley Infant School,52.535534,-1.79092
primary_school,Prenton Primary School,53.366789,-3.052257
primary_school,Hollyfast Primary School,52.429117,-1.541519
primary_school,Earlsdon Primary School,52.40061,-1.530261
primary_school,Edgewick Community Primary School,52.431933,-1.495526
primary_school,Gosford Park Primary School,52.404703,-1.489619
primary_school,Longford Park Primary School,52.444687,-1.484449
primary_school,St Christopher Primary School,52.413374,-1.550532
primary_school,Whitley Abbey Primary School,52.386847,-1.485138
primary_school,Allesley Hall Primary School,52.415421,-1.564112
primary_school,Ernesford Grange Primary School,52.399082,-1.452911
primary_school,Allesley Primary School,52.427582,-1.568404
primary_school,Grangehurst Primary School,52.450645,-1.475683
primary_school,Grange Farm Primary School,52.383358,-1.519029
primary_school,Eastern Green Junior School,52.418089,-1.596683
primary_school,Park Hill Primary School,52.416457,-1.574643
primary_school,Cannon Park Primary School,52.383091,-1.547005
primary_school,Sowe Valley Primary School,52.394213,-1.457644
primary_school,Broad Heath Community Primary School,52.424296,-1.49679
primary_school,Joseph Cash Primary School,52.429049,-1.508854
primary_school,Whoberley Hall Primary School,52.410439,-1.554193
primary_school,Holbrook Primary School,52.43864,-1.497759
primary_school,Stoke Primary School,52.413408,-1.479903
primary_school,Coundon Primary School,52.420193,-1.539949
primary_school,Aldermoor Farm Primary School,52.398473,-1.475141
primary_school,Ravensdale Primary School,52.412503,-1.464315
primary_school,Stoke Heath Primary School,52.421989,-1.48292
primary_school,Whitmore Park Primary School,52.438359,-1.525683
primary_school,Stivichall Primary School,52.387447,-1.523245
primary_school,John Gulson Primary School,52.418467,-1.502282
primary_school,Manor Park Primary School,52.39103,-1.508938
primary_school,Templars Primary School,52.400529,-1.572827
primary_school,Wyken Croft Primary School,52.420508,-1.45544
primary_school,Moseley Primary School,52.415125,-1.526961
primary_school,John Shelton Community Primary School,52.449323,-1.507114
primary_school,All Saints Church of England Primary School,52.401158,-1.497362
primary_school,St Andrew's Church of England Infant School,52.420165,-1.601531
primary_school,St Osburg's Catholic Primary School,52.410636,-1.519408
primary_school,Our Lady of the Assumption Catholic Primary School,52.402557,-1.584434
primary_school,St Anne's Catholic Primary School,52.388316,-1.471646
primary_school,All Souls' Catholic Primary School,52.405791,-1.537762
primary_school,Holy Family Catholic Primary School,52.445311,-1.521871
primary_school,Brierley Hill Primary School,52.478355,-2.119497
primary_school,Brockmoor Primary School,52.483577,-2.129465
primary_school,Brook Primary School,52.472528,-2.152207
primary_school,Maidensbridge Primary School,52.510564,-2.178153
primary_school,Mount Pleasant Primary School,52.473643,-2.112491
primary_school,Dawley Brook Primary School,52.500898,-2.173695
primary_school,Red Hall Primary School,52.517723,-2.127694
primary_school,Crestwood Park Primary School,52.492306,-2.14553
primary_school,Peters Hill Primary School,52.463257,-2.132173
primary_school,Blanford Mere Primary School,52.503345,-2.159827
primary_school,Wollescote Primary School,52.453573,-2.107186
primary_school,Caslon Primary Community School,52.452293,-2.089334
primary_school,The Ridge Primary School,52.456301,-2.172209
primary_school,Amblecote Primary School,52.467406,-2.150555
primary_school,Hurst Green Primary School,52.467562,-2.026217
primary_school,Cotwall End Primary School,52.537305,-2.125879
primary_school,Russells Hall Primary School,52.507917,-2.116822
primary_school,Howley Grange Primary School,52.4563,-2.015938
primary_school,Ashwood Park Primary School,52.472185,-2.166486
primary_school,Bromley Hills Primary School,52.489733,-2.153651
primary_school,Roberts Primary School,52.521129,-2.120158
primary_school,Wrens Nest Primary School,52.52422,-2.101964
primary_school,Straits Primary School,52.527067,-2.140162
primary_school,Belle Vue Primary School,52.481229,-2.172557
primary_school,Dingle Community Primary School,52.486145,-2.147601
primary_school,Quarry Bank Primary School,52.472493,-2.101123
primary_school,Glynne Primary School,52.488135,-2.171833
primary_school,Milking Bank Primary School,52.515446,-2.112716
primary_school,St Mark's CofE Primary School,52.501079,-2.130843
primary_school,Oldswinford C of E Primary School,52.446333,-2.143318
primary_school,St Margaret's At Hasbury CofE Primary School,52.444148,-2.061276
primary_school,Cradley CofE Primary School,52.463128,-2.087134
primary_school,Halesowen CofE Primary School,52.450607,-2.052516
primary_school,Our Lady and St Kenelm RC School,52.449759,-2.058694
primary_school,St James's CofE Primary School,52.46616,-2.168038
primary_school,Alder Coppice Primary School,52.545424,-2.13298
primary_school,Hamstead Primary School,52.536433,-1.943859
primary_school,Hargate Primary School,52.524741,-1.995343
primary_school,Albert Pritchard Infant School,52.562237,-2.013631
primary_school,Moorlands Primary School,52.542622,-2.003141
primary_school,Old Park Primary School,52.561615,-2.024149
primary_school,Park Hill Primary School,52.55839,-1.997729
primary_school,Wood Green Junior School,52.559989,-2.015917
primary_school,Burnt Tree Primary School,52.513346,-2.056098
primary_school,Great Bridge Primary School,52.533185,-2.039067
primary_school,Ocker Hill Infant School,52.543658,-2.040359
primary_school,Whitecrest Primary School,52.549331,-1.924185
primary_school,Eaton Valley Primary School,52.527527,-1.983064
primary_school,Glebefields Primary School,52.543283,-2.055635
primary_school,Abbey Junior School,52.476356,-1.98036
primary_school,Abbey Infant School,52.477749,-1.980256
primary_school,Annie Lennard Primary School,52.481561,-1.98454
primary_school,Bearwood Primary School,52.477918,-1.970701
primary_school,Bleakhouse Primary School,52.475566,-1.998881
primary_school,Brickhouse Primary School,52.48367,-2.05793
primary_school,Cape Primary School,52.487029,-1.955423
primary_school,Crocketts Community Primary School,52.491367,-1.971664
primary_school,Grace Mary Primary School,52.501413,-2.043001
primary_school,Highfields Primary School,52.471809,-2.045048
primary_school,Oakham Primary School,52.50214,-2.047731
primary_school,Old Hill Primary School,52.47365,-2.067044
primary_school,Perryfields Primary School,52.465407,-2.012217
primary_school,Reddal Hill Primary School,52.475896,-2.06958
primary_school,Temple Meadow Primary School,52.472908,-2.060094
primary_school,Tividale Hall Primary School,52.507933,-2.058522
primary_school,Lyng Primary School,52.511841,-1.999573
primary_school,Lodge Primary School,52.517612,-2.003641
primary_school,Joseph Turner Primary School,52.535896,-2.049345
primary_school,Grove Vale Primary School,52.546152,-1.946575
primary_school,Yew Tree Primary School,52.560333,-1.956176
primary_school,Brandhall Primary School,52.472168,-2.004358
primary_school,Hall Green Primary School,52.545813,-1.991625
primary_school,Langley Primary School,52.491747,-2.015377
primary_school,Ryders Green Primary School,52.524147,-2.013531
primary_school,Blackheath Primary School,52.47956,-2.038003
primary_school,Ferndale Primary School,52.539314,-1.935157
primary_school,Causeway Green Primary School,52.481363,-2.019319
primary_school,Rood End Primary School,52.495578,-2.000015
primary_school,Holy Trinity CofE Primary School,52.510725,-1.987904
primary_school,St Martin's CofE Primary School,52.528362,-2.050427
primary_school,St Mary Magdalene CofE Voluntary Controlled Primary School,52.53311,-1.988148
primary_school,All Saints CofE Primary School,52.531375,-1.994016
primary_school,St Margaret's CofE Primary School,52.557833,-1.935867
primary_school,St Matthew's CofE Primary School,52.49103,-1.957098
primary_school,Blossomfield Infant and Nursery School,52.410975,-1.816618
primary_school,Burman Infant School,52.406024,-1.836513
primary_school,Cranmore Infant School,52.40122,-1.804665
primary_school,Sharmans Cross Junior School,52.414373,-1.80496
primary_school,Shirley Heath Junior School,52.403444,-1.818678
primary_school,Woodlands Infant School,52.399197,-1.827719
primary_school,Widney Junior School,52.400575,-1.80095
primary_school,Mill Lodge Primary School,52.405082,-1.852362
primary_school,Marston Green Junior School,52.46661,-1.750252
primary_school,Tidbury Green School,52.380673,-1.85118
primary_school,Cheswick Green Primary School,52.381791,-1.809731
primary_school,Olton Primary School,52.44561,-1.797569
primary_school,Greswold Primary School,52.42361,-1.781744
primary_school,Monkspath Junior and Infant School,52.390219,-1.785699
primary_school,Meriden Church of England Primary School,52.439747,-1.644398
primary_school,St Alphege Church of England Infant and Nursery School,52.411055,-1.774705
primary_school,St Alphege Church of England Junior School,52.405978,-1.775863
primary_school,Berkswell Church of England Voluntary Aided Primary School,52.409613,-1.641833
primary_school,George Fentham Endowed School,52.425598,-1.700351
primary_school,St Mary and St Margaret's Church of England Aided Primary School,52.504669,-1.784717
primary_school,Bishop Wilson Church of England Primary School,52.478807,-1.728716
primary_school,Alumwell Junior School,52.585764,-2.00806
primary_school,Alumwell Infant School,52.585764,-2.00806
primary_school,Butts Primary School,52.591408,-1.977077
primary_school,Elmore Green Primary School,52.616347,-2.008125
primary_school,Leamore Primary School,52.610387,-1.997343
primary_school,Palfrey Junior School,52.572908,-1.988418
primary_school,Whitehall Junior Community School,52.57109,-1.972793
primary_school,Lower Farm Primary School,52.628816,-1.998332
primary_school,King Charles Primary School,52.587938,-2.019337
primary_school,Pinfold Street Primary School,52.565089,-2.041574
primary_school,Salisbury Primary School,52.571998,-2.023904
primary_school,Kings Hill Primary School,52.565444,-2.027367
primary_school,New Invention Infant School,52.60922,-2.041247
primary_school,Short Heath Junior School,52.598083,-2.036364
primary_school,County Bridge Primary School,52.583846,-2.029091
primary_school,Whetstone Field Primary School,52.595103,-1.917566
primary_school,Watling Street Primary School,52.656093,-1.938696
primary_school,Millfield Primary School,52.643543,-1.92219
primary_school,Radleys Primary School,52.608138,-1.949276
primary_school,Manor Primary School,52.580877,-1.880551
primary_school,Pelsall Village School,52.63,-1.973082
primary_school,Holy Trinity Church of England Primary School,52.639301,-1.940522
primary_school,Rosedale Church of England C Infant School,52.598255,-2.034858
primary_school,St Giles Church of England Primary School,52.584153,-2.049916
primary_school,St Michael's Church of England C Primary School,52.624075,-1.972539
primary_school,St John's Church of England Primary School,52.627051,-1.928498
primary_school,Blue Coat Church of England Aided Junior School,52.581212,-1.97382
primary_school,Blue Coat Church of England Aided Infant School,52.579981,-1.975695
primary_school,St Mary's The Mount Catholic Primary School,52.576186,-1.970798
primary_school,"St Patrick's Catholic Primary School, Walsall",52.589737,-1.986318
primary_school,"St Peter's Catholic Primary School, Bloxwich",52.62059,-2.001921
primary_school,"St Joseph's Catholic Primary School, Darlaston",52.572768,-2.038025
primary_school,St Thomas of Canterbury Catholic Primary School,52.604101,-1.977602
primary_school,St Francis Catholic Primary School,52.617713,-1.952175
primary_school,St Mary of the Angels Catholic Primary School,52.598921,-1.9144
primary_school,"St Anne's Catholic Primary School, Streetly",52.57934,-1.891047
primary_school,Bushbury Hill Primary School,52.617475,-2.108208
primary_school,Whitgreave Primary School,52.611893,-2.11701
primary_school,Graiseley Primary School,52.576403,-2.133044
primary_school,Rakegate Primary School,52.61917,-2.13796
primary_school,Claregate Primary School,52.607319,-2.154978
primary_school,Castlecroft Primary School,52.579033,-2.182888
primary_school,Loxdale Primary School,52.559841,-2.074551
primary_school,Stowlawn Primary School,52.576418,-2.087978
primary_school,Long Knowle Primary School,52.612403,-2.088715
primary_school,Wood End Primary School,52.610368,-2.081874
primary_school,Stow Heath Primary School,52.580885,-2.075399
primary_school,Wilkinson Primary School,52.554613,-2.067861
primary_school,Lanesfield Primary School,52.557445,-2.103841
primary_school,Eastfield Primary School,52.584817,-2.106562
primary_school,Wodensfield Primary School,52.604519,-2.089689
primary_school,Christ Church (Church of England) Infant and Nursery School,52.590035,-2.183598
primary_school,Christ Church (Church of England) Junior School,52.594099,-2.177518
primary_school,St Luke's Church of England Aided Primary School,52.571346,-2.129016
primary_school,Holy Trinity Catholic Primary School,52.567008,-2.070079
primary_school,St Paul's Church of England Aided Primary School,52.621266,-2.144584
primary_school,Roby Park Primary School,53.415533,-2.866952
primary_school,Knowsley Village School,53.449019,-2.854188
primary_school,Malvern Primary School,53.409346,-2.879673
primary_school,Park Brow Community Primary School,53.474463,-2.874511
primary_school,Westvale Primary School,53.482764,-2.906464
primary_school,Millbrook Community Primary School,53.485329,-2.895306
primary_school,Ravenscroft Community Primary School,53.494757,-2.887018
primary_school,Evelyn Community Primary School,53.431102,-2.794587
primary_school,Eastcroft Park School,53.494128,-2.878503
primary_school,Kirkby CofE Primary School,53.484264,-2.888668
primary_school,St Mary and St Paul's CofE Primary School,53.420837,-2.801242
primary_school,Holy Family Catholic Primary School & Nursery,53.390794,-2.7591
primary_school,Our Lady's Catholic Primary School,53.432369,-2.801384
primary_school,St Luke's Catholic Primary School,53.420201,-2.791509
primary_school,St Laurence's Catholic Primary School,53.477017,-2.879144
primary_school,St Aidan's Catholic Primary School,53.418167,-2.834189
primary_school,St Michael and All Angels Catholic Primary School,53.484371,-2.89952
primary_school,St Marie's Catholic Primary School,53.486876,-2.873274
primary_school,St Albert's Catholic Primary School,53.439412,-2.871232
primary_school,Holy Family Catholic Primary School,53.369126,-2.846651
primary_school,St Mark's Catholic Primary School,53.363816,-2.825808
primary_school,St Andrew the Apostle Catholic Primary School,53.36072,-2.845598
primary_school,St Joseph's Catholic Primary School,53.416971,-2.830419
primary_school,St Brigid's Catholic Primary School,53.433886,-2.868485
primary_school,St Leo's and Southmead Catholic Primary School Serving the Community,53.410375,-2.793027
primary_school,St John Fisher Catholic Primary School,53.453377,-2.850586
primary_school,St Anne's Catholic Primary School,53.405711,-2.84655
primary_school,Saints Peter and Paul Catholic Primary School,53.497945,-2.88018
primary_school,St Columba's Catholic Primary School,53.425173,-2.839969
primary_school,St Margaret Mary's Catholic Infant School,53.414243,-2.877488
primary_school,St Margaret Mary's Catholic Junior School,53.414467,-2.878801
primary_school,Banks Road Primary School,53.347602,-2.889202
primary_school,Barlows Primary School,53.469239,-2.940869
primary_school,Belle Vale Community Primary School,53.387853,-2.858751
primary_school,Blackmoor Park Junior School,53.42575,-2.893105
primary_school,Booker Avenue Junior School,53.371,-2.905997
primary_school,Corinthian Community Primary School,53.419615,-2.9115
primary_school,Springwood Heath Primary School,53.363484,-2.88824
primary_school,Hunts Cross Primary School,53.357828,-2.85403
primary_school,Matthew Arnold Primary School,53.378586,-2.961298
primary_school,Northcote Primary School,53.45082,-2.963516
primary_school,Pleasant Street Primary School,53.404424,-2.97408
primary_school,Whitefield Primary School,53.420143,-2.957752
primary_school,Ranworth Square Primary School,53.451415,-2.927028
primary_school,Windsor Community Primary School,53.392829,-2.967379
primary_school,Middlefield Community Primary School,53.342645,-2.83387
primary_school,Booker Avenue Infant School,53.371,-2.905997
primary_school,Norman Pannell Primary School,53.386879,-2.841561
primary_school,Gwladys Street Primary and Nursery School,53.439376,-2.963709
primary_school,Broadgreen Primary,53.411518,-2.908829
primary_school,Wavertree Church of England School,53.398023,-2.918588
primary_school,St Anne's (Stanley) Junior Mixed and Infant School,53.415443,-2.918662
primary_school,"St Mary's Church of England Primary School, West Derby",53.433712,-2.90995
primary_school,Christ The King Catholic Primary School,53.399711,-2.901132
primary_school,Our Lady and St Swithin's Catholic Primary School,53.458433,-2.900282
primary_school,Holy Cross Catholic Primary School,53.41242,-2.984388
primary_school,Holy Name Catholic Primary School,53.467309,-2.929062
primary_school,Holy Trinity Catholic Primary School,53.349698,-2.891409
primary_school,Much Woolton Catholic Primary School,53.373406,-2.860294
primary_school,Our Lady Immaculate Catholic Primary School,53.426066,-2.973416
primary_school,St Finbar's Catholic Primary School,53.380491,-2.961296
primary_school,Sacred Heart Catholic Primary School and Nursery,53.408628,-2.96005
primary_school,Our Lady's Bishop Eton Catholic Primary School,53.388607,-2.899229
primary_school,St Austin's Catholic Primary School,53.362738,-2.910826
primary_school,St Clare's Catholic Primary School,53.394307,-2.933035
primary_school,St Cuthbert's Catholic Primary and Nursery School,53.413911,-2.924978
primary_school,St Francis de Sales Catholic Junior School,53.442425,-2.973534
primary_school,St Francis de Sales Catholic Infant and Nursery School,53.443566,-2.972431
primary_school,St Hugh's Catholic Primary School,53.398575,-2.940092
primary_school,St Michael's Catholic Primary School,53.417659,-2.951391
primary_school,St Patrick's Catholic Primary School,53.392251,-2.971035
primary_school,St Paul's Catholic Junior School,53.430135,-2.901641
primary_school,St Sebastian's Catholic Primary School and Nursery,53.410211,-2.938392
primary_school,St Vincent de Paul Catholic Primary School,53.399818,-2.982217
primary_school,Our Lady of Good Help Catholic Primary School,53.399856,-2.917499
primary_school,St Paul's and St Timothy's Catholic Infant School,53.430135,-2.901641
primary_school,St Anthony of Padua Catholic Primary School,53.382256,-2.918699
primary_school,St Gregory's Catholic Primary School,53.3892,-2.83875
primary_school,St Paschal Baylon Catholic Primary School,53.40101,-2.873951
primary_school,St Anne's Catholic Primary School,53.403383,-2.95381
primary_school,King David Primary School,53.396184,-2.901705
primary_school,Allanson Street Primary School,53.448159,-2.714018
primary_school,Rivington Primary School,53.462229,-2.751654
primary_school,Robins Lane Community Primary School,53.438671,-2.719309
primary_school,Thatto Heath Community Primary School,53.436699,-2.753476
primary_school,Sutton Manor Community Primary School,53.413411,-2.73155
primary_school,Sherdley Primary School,53.427473,-2.719014
primary_school,Eaves Primary School,53.430235,-2.721589
primary_school,Ashurst Primary School,53.465851,-2.709103
primary_school,Bleak Hill Primary School,53.462876,-2.770026
primary_school,Grange Valley Primary School,53.462878,-2.669816
primary_school,Newton-le-Willows Primary School,53.454095,-2.62691
primary_school,Lyme Community Primary School,53.456665,-2.653906
primary_school,Longton Lane Community Primary School,53.422621,-2.773391
primary_school,Garswood Primary and Nursery School,53.490598,-2.673268
primary_school,Legh Vale Primary School,53.465856,-2.685153
primary_school,Eccleston Mere Primary School,53.450882,-2.778859
primary_school,Merton Bank Primary School,53.456864,-2.717869
primary_school,Wargrave CofE Primary School,53.445681,-2.632131
primary_school,Eccleston Lane Ends Primary School,53.432213,-2.79107
primary_school,Sutton Oak CofE Primary School,53.438655,-2.703908
primary_school,Rectory CofE Primary School,53.498557,-2.66762
primary_school,St Aidan's CofE Primary School Billinge,53.497998,-2.703911
primary_school,St Peter's CofE Primary School,53.455896,-2.61763
primary_school,St. Mary's Blackbrook Catholic Primary School,53.464369,-2.705961
primary_school,Holy Cross Catholic Primary School,53.455664,-2.732005
primary_school,St Anne's Catholic Primary School,53.431852,-2.708311
primary_school,St Austin's Catholic Primary School,53.434789,-2.759854
primary_school,"St Teresa's Catholic Primary School, Devon Street",53.454157,-2.757399
primary_school,St Thomas of Canterbury Catholic Primary School,53.465701,-2.761265
primary_school,St Peter and St Paul Catholic Primary School,53.470177,-2.725159
primary_school,St John Vianney Catholic Primary School,53.428084,-2.748372
primary_school,St Mary's Catholic Primary School,53.491285,-2.717245
primary_school,Corpus Christi Catholic Primary School,53.505572,-2.790808
primary_school,St Bartholomew's Catholic Primary School,53.406874,-2.750647
primary_school,Haydock English Martyrs' Primary School,53.468647,-2.662134
primary_school,St Julie's Catholic Primary School,53.456793,-2.78222
primary_school,St Theresa's Catholic Primary School,53.417062,-2.722389
primary_school,Linacre Primary School,53.459405,-2.990942
primary_school,Netherton Moss Primary School,53.486345,-2.980041
primary_school,Birkdale Primary School,53.631571,-3.005513
primary_school,Farnborough Road Junior School,53.616008,-3.013397
primary_school,Farnborough Road Infant School,53.616008,-3.013397
primary_school,Norwood Primary School,53.648173,-2.979448
primary_school,Marshside Primary School,53.673618,-2.96976
primary_school,Aintree Davenhill Primary School,53.482389,-2.942065
primary_school,Hudson Primary School,53.500854,-2.93961
primary_school,Hatton Hill Primary School,53.479403,-3.000871
primary_school,Northway Primary School,53.520521,-2.935037
primary_school,Woodlands Primary School,53.555968,-3.077658
primary_school,Summerhill Primary School,53.507052,-2.926312
primary_school,Freshfield Primary School,53.562955,-3.051021
primary_school,Green Park Primary School,53.51906,-2.953828
primary_school,Redgate Community Primary School,53.551906,-3.052317
primary_school,Kings Meadow Primary School and Early Years Education Centre,53.591586,-3.036442
primary_school,Larkfield Primary School,53.665839,-2.962407
primary_school,Melling Primary School,53.48933,-2.909392
primary_school,Lydiate Primary School,53.527009,-2.947837
primary_school,Christ Church Church of England Controlled Primary School,53.452943,-2.985445
primary_school,St John's Church of England Primary School,53.674961,-2.947962
primary_school,St Luke's Church of England Primary School,53.550083,-3.077312
primary_school,St Philip's Church of England Controlled Primary School,53.471189,-2.99313
primary_school,St Oswald's Church of England Primary School,53.486698,-2.9698
primary_school,St Philip's Church of England Primary School,53.642025,-2.992572
primary_school,St Monica's Catholic Primary School,53.456659,-2.976254
primary_school,St Robert Bellarmine Catholic Primary School,53.467896,-2.985957
primary_school,Holy Family Catholic Primary School,53.648933,-2.979935
primary_school,St Patrick's Catholic Primary School,53.663221,-2.96819
primary_school,St John's Church of England Primary School,53.477495,-3.030796
primary_school,St Luke's Halsall Church of England Primary School,53.493575,-3.027809
primary_school,St Nicholas Church of England Primary School,53.484655,-3.042724
primary_school,St George's Catholic Primary School,53.505175,-2.942178
primary_school,Great Crosby Catholic Primary School,53.489873,-3.019189
primary_school,Our Lady Star of the Sea Catholic Primary School,53.463934,-3.005086
primary_school,Our Lady of Compassion Catholic Primary School,53.556763,-3.051909
primary_school,English Martyrs' Catholic Primary School,53.471688,-2.995868
primary_school,St Elizabeth's Catholic Primary School,53.463618,-2.99342
primary_school,St William of York Catholic Primary School,53.495866,-3.001409
primary_school,Our Lady Queen of Peace Catholic Primary School,53.481357,-3.00164
primary_school,St Gregory's Catholic Primary School,53.528684,-2.947482
primary_school,Ursuline Catholic Primary School,53.486052,-3.045366
primary_school,St Jerome's Catholic Primary School,53.555556,-3.085452
primary_school,Holy Rosary Catholic Primary School,53.485463,-2.936406
primary_school,St John Bosco Catholic Primary School,53.518821,-2.954532
primary_school,Bishop David Sheppard Church of England Primary School,53.649418,-2.96223
primary_school,Bedford Drive Primary School,53.369507,-3.023948
primary_school,Woodlands Primary School,53.386301,-3.026757
primary_school,Devonshire Park Primary School,53.374689,-3.033873
primary_school,New Brighton Primary School,53.43415,-3.039169
primary_school,Mount Primary School,53.429193,-3.050923
primary_school,Liscard Primary School,53.424155,-3.036999
primary_school,St George's Primary School,53.423015,-3.062389
primary_school,Riverside Primary School,53.413861,-3.021583
primary_school,Kingsway Primary School,53.4102,-3.031229
primary_school,Park Primary School,53.41507,-3.046994
primary_school,Somerville Primary School,53.412779,-3.032389
primary_school,Eastway Primary School,53.405597,-3.106661
primary_school,Castleway Primary School,53.415881,-3.09778
primary_school,Greenleas Primary School,53.425361,-3.077421
primary_school,Lingham Primary School,53.4033,-3.118725
primary_school,Higher Bebington Junior School,53.354637,-3.029376
primary_school,Grove Street Primary School,53.361138,-3.000621
primary_school,Thornton Hough Primary School,53.321521,-3.044897
primary_school,Raeburn Primary School,53.320872,-2.981618
primary_school,Brackenwood Infant School,53.351118,-3.014163
primary_school,Greasby Infant School,53.373842,-3.12171
primary_school,West Kirby Primary School,53.377623,-3.183414
primary_school,Black Horse Hill Infant School,53.377495,-3.162695
primary_school,Barnston Primary School,53.323478,-3.076609
primary_school,Fender Primary School,53.37692,-3.082301
primary_school,Mersey Park Primary School,53.378315,-3.024024
primary_school,Overchurch Infant School,53.390149,-3.101328
primary_school,Cathcart Street Primary School,53.395166,-3.027617
primary_school,Leasowe Primary School,53.412636,-3.089963
primary_school,Birkenhead Christ Church CofE Primary School,53.384578,-3.033722
primary_school,St Joseph's Catholic Primary School Upton,53.386644,-3.099237
primary_school,St Peter's Catholic Primary School,53.383035,-3.079073
primary_school,St Paul's Catholic Primary School,53.396471,-3.083339
primary_school,"St Joseph's Catholic Primary School, Wallasey",53.411556,-3.026161
